Cidade,UF,lat,lon,ibge_id
ACRELANDIA,AC,-9.82581,-66.8972,1200013
ASSIS BRASIL,AC,-10.9298,-69.5738,1200054
BRASILEIA,AC,-10.995,-68.7497,1200104
BUJARI,AC,-9.81528,-67.955,1200138
CAPIXABA,AC,-10.566,-67.686,1200179
CRUZEIRO DO SUL,AC,-7.62762,-72.6756,1200203
EPITACIOLANDIA,AC,-11.0188,-68.7341,1200252
FEIJO,AC,-8.17054,-70.351,1200302
JORDAO,AC,-9.1908,-71.9503,1200328
MANCIO LIMA,AC,-7.61657,-72.8997,1200336
MANOEL URBANO,AC,-8.83291,-69.2679,1200344
MARECHAL THAUMATURGO,AC,-8.93898,-72.7997,1200351
PLACIDO DE CASTRO,AC,-10.2806,-67.1371,1200385
PORTO ACRE,AC,-9.58138,-67.5478,1200807
PORTO WALTER,AC,-8.26323,-72.7537,1200393
RIO BRANCO,AC,-9.97499,-67.8243,1200401
RODRIGUES ALVES,AC,-7.73864,-72.661,1200427
SANTA ROSA DO PURUS,AC,-9.44652,-70.4902,1200435
SENA MADUREIRA,AC,-9.06596,-68.6571,1200500
SENADOR GUIOMARD,AC,-10.1497,-67.7362,1200450
TARAUACA,AC,-8.15697,-70.7722,1200609
XAPURI,AC,-10.6516,-68.4969,1200708
AGUA BRANCA,AL,-9.262,-37.938,2700102
ANADIA,AL,-9.68489,-36.3078,2700201
ARAPIRACA,AL,-9.75487,-36.6615,2700300
ATALAIA,AL,-9.5119,-36.0086,2700409
BARRA DE SANTO ANTONIO,AL,-9.4023,-35.5101,2700508
BARRA DE SAO MIGUEL,AL,-9.83842,-35.9057,2700607
BATALHA,AL,-9.6742,-37.133,2700706
BELEM,AL,-9.57047,-36.4904,2700805
BELO MONTE,AL,-9.82272,-37.277,2700904
BOCA DA MATA,AL,-9.64308,-36.2125,2701001
BRANQUINHA,AL,-9.23342,-36.0162,2701100
CACIMBINHAS,AL,-9.40121,-36.9911,2701209
CAJUEIRO,AL,-9.3994,-36.1559,2701308
CAMPESTRE,AL,-8.84723,-35.5685,2701357
CAMPO ALEGRE,AL,-9.78451,-36.3525,2701407
CAMPO GRANDE,AL,-9.95542,-36.7926,2701506
CANAPI,AL,-9.11932,-37.5967,2701605
CAPELA,AL,-9.41504,-36.0826,2701704
CARNEIROS,AL,-9.48476,-37.3773,2701803
CHA PRETA,AL,-9.2556,-36.2983,2701902
COITE DO NOIA,AL,-9.63348,-36.5845,2702009
COLONIA LEOPOLDINA,AL,-8.91806,-35.7214,2702108
COQUEIRO SECO,AL,-9.63715,-35.7994,2702207
CORURIPE,AL,-10.1276,-36.1717,2702306
CRAIBAS,AL,-9.6178,-36.7697,2702355
DELMIRO GOUVEIA,AL,-9.38534,-37.9987,2702405
DOIS RIACHOS,AL,-9.38465,-37.0965,2702504
ESTRELA DE ALAGOAS,AL,-9.39089,-36.7644,2702553
FEIRA GRANDE,AL,-9.89859,-36.6815,2702603
FELIZ DESERTO,AL,-10.2935,-36.3028,2702702
FLEXEIRAS,AL,-9.27281,-35.7139,2702801
GIRAU DO PONCIANO,AL,-9.88404,-36.8316,2702900
IBATEGUARA,AL,-8.97823,-35.9373,2703007
IGACI,AL,-9.53768,-36.6372,2703106
IGREJA NOVA,AL,-10.1235,-36.6597,2703205
INHAPI,AL,-9.22594,-37.7509,2703304
JACARE DOS HOMENS,AL,-9.63545,-37.2076,2703403
JACUIPE,AL,-8.83951,-35.4591,2703502
JAPARATINGA,AL,-9.08746,-35.2634,2703601
JARAMATAIA,AL,-9.66224,-37.0046,2703700
JEQUIA DA PRAIA,AL,-10.0133,-36.0142,2703759
JOAQUIM GOMES,AL,-9.1328,-35.7474,2703809
JUNDIA,AL,-8.93297,-35.5669,2703908
JUNQUEIRO,AL,-9.90696,-36.4803,2704005
LAGOA DA CANOA,AL,-9.83291,-36.7413,2704104
LIMOEIRO DE ANADIA,AL,-9.74098,-36.5121,2704203
MACEIO,AL,-9.66599,-35.735,2704302
MAJOR ISIDORO,AL,-9.53009,-36.992,2704401
MAR VERMELHO,AL,-9.44739,-36.3881,2704906
MARAGOGI,AL,-9.00744,-35.2267,2704500
MARAVILHA,AL,-9.23045,-37.3524,2704609
MARECHAL DEODORO,AL,-9.70971,-35.8967,2704708
MARIBONDO,AL,-9.58353,-36.3045,2704807
MATA GRANDE,AL,-9.11824,-37.7323,2705002
MATRIZ DE CAMARAGIBE,AL,-9.15437,-35.5243,2705101
MESSIAS,AL,-9.39384,-35.8392,2705200
MINADOR DO NEGRAO,AL,-9.31236,-36.8696,2705309
MONTEIROPOLIS,AL,-9.60357,-37.2505,2705408
MURICI,AL,-9.30682,-35.9428,2705507
NOVO LINO,AL,-8.94191,-35.664,2705606
OLHO D AGUA DAS FLORES,AL,-9.53686,-37.2971,2705705
OLHO D AGUA DO CASADO,AL,-9.50357,-37.8301,2705804
OLHO D AGUA GRANDE,AL,-10.0572,-36.8101,2705903
OLIVENCA,AL,-9.51954,-37.1954,2706000
OURO BRANCO,AL,-9.15884,-37.3556,2706109
PALESTINA,AL,-9.67493,-37.339,2706208
PALMEIRA DOS INDIOS,AL,-9.40568,-36.6328,2706307
PAO DE ACUCAR,AL,-9.74032,-37.4403,2706406
PARICONHA,AL,-9.25634,-37.9988,2706422
PARIPUEIRA,AL,-9.46313,-35.552,2706448
PASSO DE CAMARAGIBE,AL,-9.24511,-35.4745,2706505
PAULO JACINTO,AL,-9.36792,-36.3672,2706604
PENEDO,AL,-10.2874,-36.5819,2706703
PIACABUCU,AL,-10.406,-36.434,2706802
PILAR,AL,-9.60135,-35.9543,2706901
PINDOBA,AL,-9.47382,-36.2918,2707008
PIRANHAS,AL,-9.624,-37.757,2707107
POCO DAS TRINCHEIRAS,AL,-9.30742,-37.2889,2707206
PORTO CALVO,AL,-9.05195,-35.3987,2707305
PORTO DE PEDRAS,AL,-9.16006,-35.3049,2707404
PORTO REAL DO COLEGIO,AL,-10.1849,-36.8376,2707503
QUEBRANGULO,AL,-9.32001,-36.4692,2707602
RIO LARGO,AL,-9.47783,-35.8394,2707701
ROTEIRO,AL,-9.83503,-35.9782,2707800
SANTA LUZIA DO NORTE,AL,-9.6037,-35.8232,2707909
SANTANA DO IPANEMA,AL,-9.36999,-37.248,2708006
SANTANA DO MUNDAU,AL,-9.17141,-36.2176,2708105
SAO BRAS,AL,-10.1141,-36.8522,2708204
SAO JOSE DA LAJE,AL,-9.01278,-36.0515,2708303
SAO JOSE DA TAPERA,AL,-9.55768,-37.3831,2708402
SAO LUIS DO QUITUNDE,AL,-9.31816,-35.5606,2708501
SAO MIGUEL DOS CAMPOS,AL,-9.78301,-36.0971,2708600
SAO MIGUEL DOS MILAGRES,AL,-9.26493,-35.3763,2708709
SAO SEBASTIAO,AL,-9.93043,-36.559,2708808
SATUBA,AL,-9.56911,-35.8227,2708907
SENADOR RUI PALMEIRA,AL,-9.46986,-37.4576,2708956
TANQUE D ARCA,AL,-9.53379,-36.4366,2709004
TAQUARANA,AL,-9.64529,-36.4928,2709103
TEOTONIO VILELA,AL,-9.91656,-36.3492,2709152
TRAIPU,AL,-9.96262,-37.0071,2709202
UNIAO DOS PALMARES,AL,-9.15921,-36.0223,2709301
VICOSA,AL,-9.36763,-36.2431,2709400
ALVARAES,AM,-3.22727,-64.8007,1300029
AMATURA,AM,-3.37455,-68.2005,1300060
ANAMA,AM,-3.56697,-61.3963,1300086
ANORI,AM,-3.74603,-61.6575,1300102
APUI,AM,-7.19409,-59.896,1300144
ATALAIA DO NORTE,AM,-4.37055,-70.1967,1300201
AUTAZES,AM,-3.58574,-59.1256,1300300
BARCELOS,AM,-0.983373,-62.9311,1300409
BARREIRINHA,AM,-2.79886,-57.0679,1300508
BENJAMIN CONSTANT,AM,-4.37768,-70.0342,1300607
BERURI,AM,-3.89874,-61.3616,1300631
BOA VISTA DO RAMOS,AM,-2.97409,-57.5873,1300680
BOCA DO ACRE,AM,-8.74232,-67.3919,1300706
BORBA,AM,-4.39154,-59.5874,1300805
CAAPIRANGA,AM,-3.31537,-61.2206,1300839
CANUTAMA,AM,-6.52582,-64.3953,1300904
CARAUARI,AM,-4.88161,-66.9086,1301001
CAREIRO,AM,-3.76803,-60.369,1301100
CAREIRO DA VARZEA,AM,-3.314,-59.5557,1301159
COARI,AM,-4.09412,-63.1441,1301209
CODAJAS,AM,-3.83053,-62.0658,1301308
EIRUNEPE,AM,-6.65677,-69.8662,1301407
ENVIRA,AM,-7.43789,-70.0281,1301506
FONTE BOA,AM,-2.52342,-66.0942,1301605
GUAJARA,AM,-7.53797,-72.5907,1301654
HUMAITA,AM,-7.51171,-63.0327,1301704
IPIXUNA,AM,-7.04791,-71.6934,1301803
IRANDUBA,AM,-3.27479,-60.19,1301852
ITACOATIARA,AM,-3.13861,-58.4449,1301902
ITAMARATI,AM,-6.43852,-68.2437,1301951
ITAPIRANGA,AM,-2.74081,-58.0293,1302009
JAPURA,AM,-1.88237,-66.9291,1302108
JURUA,AM,-3.48438,-66.0718,1302207
JUTAI,AM,-2.75814,-66.7595,1302306
LABREA,AM,-7.26413,-64.7948,1302405
MANACAPURU,AM,-3.29066,-60.6216,1302504
MANAQUIRI,AM,-3.44078,-60.4612,1302553
MANAUS,AM,-3.11866,-60.0212,1302603
MANICORE,AM,-5.80462,-61.2895,1302702
MARAA,AM,-1.85313,-65.573,1302801
MAUES,AM,-3.39289,-57.7067,1302900
NHAMUNDA,AM,-2.20793,-56.7112,1303007
NOVA OLINDA DO NORTE,AM,-3.90037,-59.094,1303106
NOVO AIRAO,AM,-2.63637,-60.9434,1303205
NOVO ARIPUANA,AM,-5.12593,-60.3732,1303304
PARINTINS,AM,-2.63741,-56.729,1303403
PAUINI,AM,-7.71311,-66.992,1303502
PRESIDENTE FIGUEIREDO,AM,-2.02981,-60.0234,1303536
RIO PRETO DA EVA,AM,-2.7045,-59.6858,1303569
SANTA ISABEL DO RIO NEGRO,AM,-0.410824,-65.0092,1303601
SANTO ANTONIO DO ICA,AM,-3.09544,-67.9463,1303700
SAO GABRIEL DA CACHOEIRA,AM,-0.11909,-67.084,1303809
SAO PAULO DE OLIVENCA,AM,-3.47292,-68.9646,1303908
SAO SEBASTIAO DO UATUMA,AM,-2.55915,-57.8731,1303957
SILVES,AM,-2.81748,-58.248,1304005
TABATINGA,AM,-4.2416,-69.9383,1304062
TAPAUA,AM,-5.62085,-63.1808,1304104
TEFE,AM,-3.36822,-64.7193,1304203
TONANTINS,AM,-2.86582,-67.7919,1304237
UARINI,AM,-2.99609,-65.1133,1304260
URUCARA,AM,-2.52936,-57.7538,1304302
URUCURITUBA,AM,-3.12841,-58.1496,1304401
AMAPA,AP,2.05267,-50.7957,1600105
CALCOENE,AP,2.50475,-50.9512,1600204
CUTIAS,AP,0.970761,-50.8005,1600212
FERREIRA GOMES,AP,0.857256,-51.1795,1600238
ITAUBAL,AP,0.602185,-50.6996,1600253
LARANJAL DO JARI,AP,-0.804911,-52.453,1600279
MACAPA,AP,0.034934,-51.0694,1600303
MAZAGAO,AP,-0.11336,-51.2891,1600402
OIAPOQUE,AP,3.84074,-51.8331,1600501
PEDRA BRANCA DO AMAPARI,AP,0.777424,-51.9503,1600154
PORTO GRANDE,AP,0.71243,-51.4155,1600535
PRACUUBA,AP,1.74543,-50.7892,1600550
SANTANA,AP,-0.045434,-51.1729,1600600
SERRA DO NAVIO,AP,0.901357,-52.0036,1600055
TARTARUGALZINHO,AP,1.50652,-50.9087,1600709
VITORIA DO JARI,AP,-0.938,-52.424,1600808
ABAIRA,BA,-13.2488,-41.6619,2900108
ABARE,BA,-8.72073,-39.1162,2900207
ACAJUTIBA,BA,-11.6575,-38.0197,2900306
ADUSTINA,BA,-10.5437,-38.1113,2900355
AGUA FRIA,BA,-11.8618,-38.7639,2900405
AIQUARA,BA,-14.1269,-39.8937,2900603
ALAGOINHAS,BA,-12.1335,-38.4208,2900702
ALCOBACA,BA,-17.5195,-39.2036,2900801
ALMADINA,BA,-14.7089,-39.6415,2900900
AMARGOSA,BA,-13.0215,-39.602,2901007
AMELIA RODRIGUES,BA,-12.3914,-38.7563,2901106
AMERICA DOURADA,BA,-11.4429,-41.439,2901155
ANAGE,BA,-14.6151,-41.1356,2901205
ANDARAI,BA,-12.8049,-41.3297,2901304
ANDORINHA,BA,-10.3482,-39.8391,2901353
ANGICAL,BA,-12.0063,-44.7003,2901403
ANGUERA,BA,-12.1462,-39.2462,2901502
ANTAS,BA,-10.3856,-38.3401,2901601
ANTONIO CARDOSO,BA,-12.4335,-39.1176,2901700
ANTONIO GONCALVES,BA,-10.5767,-40.2785,2901809
APORA,BA,-11.6577,-38.0814,2901908
APUAREMA,BA,-13.8542,-39.7501,2901957
ARACAS,BA,-12.22,-38.2027,2902054
ARACATU,BA,-14.428,-41.4648,2902005
ARACI,BA,-11.3253,-38.9584,2902104
ARAMARI,BA,-12.0884,-38.4969,2902203
ARATACA,BA,-15.2651,-39.419,2902252
ARATUIPE,BA,-13.0716,-39.0038,2902302
AURELINO LEAL,BA,-14.321,-39.329,2902401
BAIANOPOLIS,BA,-12.3016,-44.5388,2902500
BAIXA GRANDE,BA,-11.9519,-40.169,2902609
BANZAE,BA,-10.5788,-38.6212,2902658
BARRA,BA,-11.0859,-43.1459,2902708
BARRA DA ESTIVA,BA,-13.6237,-41.3347,2902807
BARRA DO CHOCA,BA,-14.8654,-40.5791,2902906
BARRA DO MENDES,BA,-11.81,-42.059,2903003
BARRA DO ROCHA,BA,-14.2,-39.5991,2903102
BARREIRAS,BA,-12.1439,-44.9968,2903201
BARRO ALTO,BA,-11.7605,-41.9054,2903235
BARROCAS,BA,-11.5272,-39.0776,2903276
BELMONTE,BA,-15.8608,-38.8758,2903409
BELO CAMPO,BA,-15.0334,-41.2652,2903508
BIRITINGA,BA,-11.6072,-38.8051,2903607
BOA NOVA,BA,-14.3598,-40.2064,2903706
BOA VISTA DO TUPIM,BA,-12.6498,-40.6064,2903805
BOM JESUS DA LAPA,BA,-13.2506,-43.4108,2903904
BOM JESUS DA SERRA,BA,-14.3663,-40.5126,2903953
BONINAL,BA,-12.7069,-41.8286,2904001
BONITO,BA,-11.9668,-41.2647,2904050
BOQUIRA,BA,-12.8205,-42.7324,2904100
BOTUPORA,BA,-13.3772,-42.5163,2904209
BREJOES,BA,-13.1039,-39.7988,2904308
BREJOLANDIA,BA,-12.4815,-43.9679,2904407
BROTAS DE MACAUBAS,BA,-11.9915,-42.6326,2904506
BRUMADO,BA,-14.2021,-41.6696,2904605
BUERAREMA,BA,-14.9595,-39.3028,2904704
BURITIRAMA,BA,-10.7171,-43.6302,2904753
CAATIBA,BA,-14.9699,-40.4092,2904803
CABACEIRAS DO PARAGUACU,BA,-12.5317,-39.1902,2904852
CACHOEIRA,BA,-12.5994,-38.9587,2904902
CACULE,BA,-14.5003,-42.2229,2905008
CAEM,BA,-11.0677,-40.432,2905107
CAETANOS,BA,-14.3347,-40.9175,2905156
CAETITE,BA,-14.0684,-42.4861,2905206
CAFARNAUM,BA,-11.6914,-41.4688,2905305
CAIRU,BA,-13.4904,-39.0465,2905404
CALDEIRAO GRANDE,BA,-11.0208,-40.2956,2905503
CAMACAN,BA,-15.4142,-39.4919,2905602
CAMACARI,BA,-12.6996,-38.3263,2905701
CAMAMU,BA,-13.9398,-39.1071,2905800
CAMPO ALEGRE DE LOURDES,BA,-9.52221,-43.0126,2905909
CAMPO FORMOSO,BA,-10.5105,-40.32,2906006
CANAPOLIS,BA,-13.0725,-44.201,2906105
CANARANA,BA,-11.6858,-41.7677,2906204
CANAVIEIRAS,BA,-15.6722,-38.9536,2906303
CANDEAL,BA,-11.8049,-39.1203,2906402
CANDEIAS,BA,-12.6716,-38.5472,2906501
CANDIBA,BA,-14.4097,-42.8667,2906600
CANDIDO SALES,BA,-15.4993,-41.2414,2906709
CANSANCAO,BA,-10.6647,-39.4944,2906808
CANUDOS,BA,-9.90014,-39.1471,2906824
CAPELA DO ALTO ALEGRE,BA,-11.6658,-39.8349,2906857
CAPIM GROSSO,BA,-11.3797,-40.0089,2906873
CARAIBAS,BA,-14.7177,-41.2603,2906899
CARAVELAS,BA,-17.7268,-39.2597,2906907
CARDEAL DA SILVA,BA,-11.9472,-37.9469,2907004
CARINHANHA,BA,-14.2985,-43.7724,2907103
CASA NOVA,BA,-9.16408,-40.974,2907202
CASTRO ALVES,BA,-12.7579,-39.4248,2907301
CATOLANDIA,BA,-12.31,-44.8648,2907400
CATU,BA,-12.3513,-38.3791,2907509
CATURAMA,BA,-13.3239,-42.2904,2907558
CENTRAL,BA,-11.1376,-42.1116,2907608
CHORROCHO,BA,-8.9695,-39.0979,2907707
CICERO DANTAS,BA,-10.5897,-38.3794,2907806
CIPO,BA,-11.1032,-38.5179,2907905
COARACI,BA,-14.637,-39.5556,2908002
COCOS,BA,-14.1814,-44.5352,2908101
CONCEICAO DA FEIRA,BA,-12.5078,-38.9978,2908200
CONCEICAO DO ALMEIDA,BA,-12.7836,-39.1715,2908309
CONCEICAO DO COITE,BA,-11.56,-39.2808,2908408
CONCEICAO DO JACUIPE,BA,-12.3268,-38.7684,2908507
CONDE,BA,-11.8179,-37.6131,2908606
CONDEUBA,BA,-14.9022,-41.9718,2908705
CONTENDAS DO SINCORA,BA,-13.7537,-41.048,2908804
CORACAO DE MARIA,BA,-12.2333,-38.7487,2908903
CORDEIROS,BA,-15.0356,-41.9308,2909000
CORIBE,BA,-13.8232,-44.4586,2909109
CORONEL JOAO SA,BA,-10.2847,-37.9198,2909208
CORRENTINA,BA,-13.3477,-44.6333,2909307
COTEGIPE,BA,-12.0228,-44.2566,2909406
CRAVOLANDIA,BA,-13.3531,-39.8031,2909505
CRISOPOLIS,BA,-11.5059,-38.1515,2909604
CRISTOPOLIS,BA,-12.2249,-44.4214,2909703
CRUZ DAS ALMAS,BA,-12.6675,-39.1008,2909802
CURACA,BA,-8.98458,-39.8997,2909901
DARIO MEIRA,BA,-14.4229,-39.9031,2910008
DIAS D AVILA,BA,-12.6187,-38.2926,2910057
DOM BASILIO,BA,-13.7565,-41.7677,2910107
DOM MACEDO COSTA,BA,-12.9016,-39.1923,2910206
ELISIO MEDRADO,BA,-12.9417,-39.5191,2910305
ENCRUZILHADA,BA,-15.5302,-40.9124,2910404
ENTRE RIOS,BA,-11.9392,-38.0871,2910503
ERICO CARDOSO,BA,-13.4215,-42.1352,2900504
ESPLANADA,BA,-11.7942,-37.9432,2910602
EUCLIDES DA CUNHA,BA,-10.5078,-39.0153,2910701
EUNAPOLIS,BA,-16.3715,-39.5821,2910727
FATIMA,BA,-10.616,-38.2239,2910750
FEIRA DA MATA,BA,-14.2044,-44.2744,2910776
FEIRA DE SANTANA,BA,-12.2664,-38.9663,2910800
FILADELFIA,BA,-10.7405,-40.1437,2910859
FIRMINO ALVES,BA,-14.9823,-39.9269,2910909
FLORESTA AZUL,BA,-14.8629,-39.6579,2911006
FORMOSA DO RIO PRETO,BA,-11.0328,-45.193,2911105
GANDU,BA,-13.7441,-39.4747,2911204
GAVIAO,BA,-11.4688,-39.7757,2911253
GENTIO DO OURO,BA,-11.4342,-42.5077,2911303
GLORIA,BA,-9.34382,-38.2544,2911402
GONGOGI,BA,-14.3195,-39.469,2911501
GOVERNADOR LOMANTO JUNIOR,BA,-14.7948,-39.476,2903300
GOVERNADOR MANGABEIRA,BA,-12.5994,-39.0412,2911600
GUAJERU,BA,-14.5467,-41.9381,2911659
GUANAMBI,BA,-14.2231,-42.7799,2911709
GUARATINGA,BA,-16.5833,-39.7847,2911808
HELIOPOLIS,BA,-10.6825,-38.2907,2911857
IACU,BA,-12.7666,-40.2056,2911907
IBIASSUCE,BA,-14.2711,-42.257,2912004
IBICARAI,BA,-14.8579,-39.5914,2912103
IBICOARA,BA,-13.4059,-41.284,2912202
IBICUI,BA,-14.845,-39.9879,2912301
IBIPEBA,BA,-11.6438,-42.0195,2912400
IBIPITANGA,BA,-12.8804,-42.4856,2912509
IBIQUERA,BA,-12.6444,-40.9338,2912608
IBIRAPITANGA,BA,-14.1649,-39.3787,2912707
IBIRAPUA,BA,-17.6832,-40.1129,2912806
IBIRATAIA,BA,-14.0643,-39.6459,2912905
IBITIARA,BA,-12.6502,-42.2179,2913002
IBITITA,BA,-11.5414,-41.9748,2913101
IBOTIRAMA,BA,-12.1779,-43.2167,2913200
ICHU,BA,-11.7431,-39.1905,2913309
IGAPORA,BA,-13.774,-42.7155,2913408
IGRAPIUNA,BA,-13.8295,-39.1361,2913457
IGUAI,BA,-14.7528,-40.0894,2913507
ILHEUS,BA,-14.793,-39.046,2913606
INHAMBUPE,BA,-11.781,-38.355,2913705
IPECAETA,BA,-12.3028,-39.3069,2913804
IPIAU,BA,-14.1226,-39.7353,2913903
IPIRA,BA,-12.1561,-39.7359,2914000
IPUPIARA,BA,-11.8219,-42.6179,2914109
IRAJUBA,BA,-13.2563,-40.0848,2914208
IRAMAIA,BA,-13.2902,-40.9595,2914307
IRAQUARA,BA,-12.2429,-41.6155,2914406
IRARA,BA,-12.0504,-38.7631,2914505
IRECE,BA,-11.3033,-41.8535,2914604
ITABELA,BA,-16.5732,-39.5593,2914653
ITABERABA,BA,-12.5242,-40.3059,2914703
ITABUNA,BA,-14.7876,-39.2781,2914802
ITACARE,BA,-14.2784,-38.9959,2914901
ITAETE,BA,-12.9831,-40.9677,2915007
ITAGI,BA,-14.1615,-40.0131,2915106
ITAGIBA,BA,-14.2782,-39.8449,2915205
ITAGIMIRIM,BA,-16.0819,-39.6133,2915304
ITAGUACU DA BAHIA,BA,-11.0147,-42.3997,2915353
ITAJU DO COLONIA,BA,-15.1366,-39.7283,2915403
ITAJUIPE,BA,-14.6788,-39.3698,2915502
ITAMARAJU,BA,-17.0378,-39.5386,2915601
ITAMARI,BA,-13.7782,-39.683,2915700
ITAMBE,BA,-15.2429,-40.63,2915809
ITANAGRA,BA,-12.2614,-38.0436,2915908
ITANHEM,BA,-17.1642,-40.3321,2916005
ITAPARICA,BA,-12.8932,-38.68,2916104
ITAPE,BA,-14.8876,-39.4239,2916203
ITAPEBI,BA,-15.9551,-39.5329,2916302
ITAPETINGA,BA,-15.2475,-40.2482,2916401
ITAPICURU,BA,-11.3088,-38.2262,2916500
ITAPITANGA,BA,-14.4139,-39.5657,2916609
ITAQUARA,BA,-13.4459,-39.9378,2916708
ITARANTIM,BA,-15.6528,-40.065,2916807
ITATIM,BA,-12.7099,-39.6952,2916856
ITIRUCU,BA,-13.529,-40.1472,2916906
ITIUBA,BA,-10.6948,-39.8446,2917003
ITORORO,BA,-15.11,-40.0684,2917102
ITUACU,BA,-13.8107,-41.3003,2917201
ITUBERA,BA,-13.7249,-39.1481,2917300
IUIU,BA,-14.4054,-43.5595,2917334
JABORANDI,BA,-13.6071,-44.4255,2917359
JACARACI,BA,-14.8541,-42.4329,2917409
JACOBINA,BA,-11.1812,-40.5117,2917508
JAGUAQUARA,BA,-13.5248,-39.964,2917607
JAGUARARI,BA,-10.2569,-40.1999,2917706
JAGUARIPE,BA,-13.1109,-38.8939,2917805
JANDAIRA,BA,-11.5616,-37.7853,2917904
JEQUIE,BA,-13.8509,-40.0877,2918001
JEREMOABO,BA,-10.0685,-38.3471,2918100
JIQUIRICA,BA,-13.2621,-39.5737,2918209
JITAUNA,BA,-14.0131,-39.8969,2918308
JOAO DOURADO,BA,-11.3486,-41.6548,2918357
JUAZEIRO,BA,-9.41622,-40.5033,2918407
JUCURUCU,BA,-16.8488,-40.1641,2918456
JUSSARA,BA,-11.0431,-41.9702,2918506
JUSSARI,BA,-15.192,-39.491,2918555
JUSSIAPE,BA,-13.5155,-41.5882,2918605
LAFAIETE COUTINHO,BA,-13.6541,-40.2119,2918704
LAGOA REAL,BA,-14.0334,-42.1328,2918753
LAJE,BA,-13.1673,-39.4213,2918803
LAJEDAO,BA,-17.6056,-40.3383,2918902
LAJEDINHO,BA,-12.3529,-40.9048,2919009
LAJEDO DO TABOCAL,BA,-13.4663,-40.2204,2919058
LAMARAO,BA,-11.773,-38.887,2919108
LAPAO,BA,-11.3851,-41.8286,2919157
LAURO DE FREITAS,BA,-12.8978,-38.321,2919207
LENCOIS,BA,-12.5616,-41.3928,2919306
LICINIO DE ALMEIDA,BA,-14.6842,-42.5095,2919405
LIVRAMENTO DE NOSSA SENHORA,BA,-13.6369,-41.8432,2919504
LUIS EDUARDO MAGALHAES,BA,-12.0956,-45.7866,2919553
MACAJUBA,BA,-12.1326,-40.3571,2919603
MACARANI,BA,-15.5646,-40.4209,2919702
MACAUBAS,BA,-13.0186,-42.6945,2919801
MACURURE,BA,-9.16226,-39.0518,2919900
MADRE DE DEUS,BA,-12.7446,-38.6153,2919926
MAETINGA,BA,-14.6623,-41.4915,2919959
MAIQUINIQUE,BA,-15.624,-40.2587,2920007
MAIRI,BA,-11.7107,-40.1437,2920106
MALHADA,BA,-14.3371,-43.7686,2920205
MALHADA DE PEDRAS,BA,-14.3847,-41.8842,2920304
MANOEL VITORINO,BA,-14.1476,-40.2399,2920403
MANSIDAO,BA,-10.7227,-44.0428,2920452
MARACAS,BA,-13.4355,-40.4323,2920502
MARAGOGIPE,BA,-12.776,-38.9175,2920601
MARAU,BA,-14.1035,-39.0137,2920700
MARCIONILIO SOUZA,BA,-13.0064,-40.5295,2920809
MASCOTE,BA,-15.5542,-39.3016,2920908
MATA DE SAO JOAO,BA,-12.5307,-38.3009,2921005
MATINA,BA,-13.9109,-42.8439,2921054
MEDEIROS NETO,BA,-17.3707,-40.2238,2921104
MIGUEL CALMON,BA,-11.4299,-40.6031,2921203
MILAGRES,BA,-12.8646,-39.8611,2921302
MIRANGABA,BA,-10.961,-40.574,2921401
MIRANTE,BA,-14.2385,-40.7718,2921450
MONTE SANTO,BA,-10.4374,-39.3321,2921500
MORPARA,BA,-11.5569,-43.2766,2921609
MORRO DO CHAPEU,BA,-11.5488,-41.1565,2921708
MORTUGABA,BA,-15.0225,-42.3727,2921807
MUCUGE,BA,-13.0053,-41.3703,2921906
MUCURI,BA,-18.0754,-39.5565,2922003
MULUNGU DO MORRO,BA,-11.9648,-41.6374,2922052
MUNDO NOVO,BA,-11.8541,-40.4714,2922102
MUNIZ FERREIRA,BA,-13.0092,-39.1092,2922201
MUQUEM DE SAO FRANCISCO,BA,-12.065,-43.5497,2922250
MURITIBA,BA,-12.6329,-38.9921,2922300
MUTUIPE,BA,-13.2284,-39.5044,2922409
NAZARE,BA,-13.0235,-39.0108,2922508
NILO PECANHA,BA,-13.604,-39.1091,2922607
NORDESTINA,BA,-10.8192,-39.4297,2922656
NOVA CANAA,BA,-14.7912,-40.1458,2922706
NOVA FATIMA,BA,-11.6031,-39.6302,2922730
NOVA IBIA,BA,-13.812,-39.6182,2922755
NOVA ITARANA,BA,-13.0241,-40.0653,2922805
NOVA REDENCAO,BA,-12.815,-41.0748,2922854
NOVA SOURE,BA,-11.2329,-38.4871,2922904
NOVA VICOSA,BA,-17.8926,-39.3743,2923001
NOVO HORIZONTE,BA,-12.8083,-42.1682,2923035
NOVO TRIUNFO,BA,-10.3182,-38.4014,2923050
OLINDINA,BA,-11.3497,-38.3379,2923100
OLIVEIRA DOS BREJINHOS,BA,-12.3132,-42.8969,2923209
OURICANGAS,BA,-12.0175,-38.6166,2923308
OUROLANDIA,BA,-10.9578,-41.0756,2923357
PALMAS DE MONTE ALTO,BA,-14.2676,-43.1609,2923407
PALMEIRAS,BA,-12.5059,-41.5809,2923506
PARAMIRIM,BA,-13.4388,-42.2395,2923605
PARATINGA,BA,-12.687,-43.1798,2923704
PARIPIRANGA,BA,-10.6859,-37.8626,2923803
PAU BRASIL,BA,-15.4572,-39.6458,2923902
PAULO AFONSO,BA,-9.3983,-38.2216,2924009
PE DE SERRA,BA,-11.8313,-39.611,2924058
PEDRAO,BA,-12.1491,-38.6487,2924108
PEDRO ALEXANDRE,BA,-10.012,-37.8932,2924207
PIATA,BA,-13.1465,-41.7702,2924306
PILAO ARCADO,BA,-10.0051,-42.4936,2924405
PINDAI,BA,-14.4921,-42.686,2924504
PINDOBACU,BA,-10.7433,-40.3675,2924603
PINTADAS,BA,-11.8117,-39.9009,2924652
PIRAI DO NORTE,BA,-13.759,-39.3836,2924678
PIRIPA,BA,-14.9444,-41.7168,2924702
PIRITIBA,BA,-11.73,-40.5587,2924801
PLANALTINO,BA,-13.2618,-40.3695,2924900
PLANALTO,BA,-14.6654,-40.4718,2925006
POCOES,BA,-14.5234,-40.3634,2925105
POJUCA,BA,-12.4303,-38.3374,2925204
PONTO NOVO,BA,-10.8653,-40.1311,2925253
PORTO SEGURO,BA,-16.4435,-39.0643,2925303
POTIRAGUA,BA,-15.5943,-39.8638,2925402
PRADO,BA,-17.3364,-39.2227,2925501
PRESIDENTE DUTRA,BA,-11.2923,-41.9843,2925600
PRESIDENTE JANIO QUADROS,BA,-14.6885,-41.6798,2925709
PRESIDENTE TANCREDO NEVES,BA,-13.4471,-39.4203,2925758
QUEIMADAS,BA,-10.9736,-39.6293,2925808
QUIJINGUE,BA,-10.7505,-39.2137,2925907
QUIXABEIRA,BA,-11.4031,-40.12,2925931
RAFAEL JAMBEIRO,BA,-12.4053,-39.5007,2925956
REMANSO,BA,-9.61944,-42.0848,2926004
RETIROLANDIA,BA,-11.4832,-39.4234,2926103
RIACHAO DAS NEVES,BA,-11.7508,-44.9143,2926202
RIACHAO DO JACUIPE,BA,-11.8067,-39.3818,2926301
RIACHO DE SANTANA,BA,-13.6059,-42.9397,2926400
RIBEIRA DO AMPARO,BA,-11.0421,-38.4242,2926509
RIBEIRA DO POMBAL,BA,-10.8373,-38.5382,2926608
RIBEIRAO DO LARGO,BA,-15.4508,-40.7441,2926657
RIO DE CONTAS,BA,-13.5852,-41.8048,2926707
RIO DO ANTONIO,BA,-14.4071,-42.0721,2926806
RIO DO PIRES,BA,-13.1185,-42.2902,2926905
RIO REAL,BA,-11.4814,-37.9332,2927002
RODELAS,BA,-8.85021,-38.78,2927101
RUY BARBOSA,BA,-12.2816,-40.4931,2927200
SALINAS DA MARGARIDA,BA,-12.873,-38.7562,2927309
SALVADOR,BA,-12.9718,-38.5011,2927408
SANTA BARBARA,BA,-11.9515,-38.9681,2927507
SANTA BRIGIDA,BA,-9.73227,-38.1209,2927606
SANTA CRUZ CABRALIA,BA,-16.2825,-39.0295,2927705
SANTA CRUZ DA VITORIA,BA,-14.964,-39.8115,2927804
SANTA INES,BA,-13.2793,-39.814,2927903
SANTA LUZIA,BA,-15.4342,-39.3287,2928059
SANTA MARIA DA VITORIA,BA,-13.3859,-44.2011,2928109
SANTA RITA DE CASSIA,BA,-11.0063,-44.5255,2928406
SANTA TERESINHA,BA,-12.7697,-39.5215,2928505
SANTALUZ,BA,-11.2508,-39.375,2928000
SANTANA,BA,-12.9792,-44.0506,2928208
SANTANOPOLIS,BA,-12.0311,-38.8694,2928307
SANTO AMARO,BA,-12.5472,-38.7137,2928604
SANTO ANTONIO DE JESUS,BA,-12.9614,-39.2584,2928703
SANTO ESTEVAO,BA,-12.428,-39.2505,2928802
SAO DESIDERIO,BA,-12.3572,-44.9769,2928901
SAO DOMINGOS,BA,-11.4649,-39.5268,2928950
SAO FELIPE,BA,-12.8394,-39.0893,2929107
SAO FELIX,BA,-12.6104,-38.9727,2929008
SAO FELIX DO CORIBE,BA,-13.4019,-44.1837,2929057
SAO FRANCISCO DO CONDE,BA,-12.6183,-38.6786,2929206
SAO GABRIEL,BA,-11.2175,-41.8843,2929255
SAO GONCALO DOS CAMPOS,BA,-12.4331,-38.9663,2929305
SAO JOSE DA VITORIA,BA,-15.0787,-39.3437,2929354
SAO JOSE DO JACUIPE,BA,-11.4137,-39.8669,2929370
SAO MIGUEL DAS MATAS,BA,-13.0434,-39.4578,2929404
SAO SEBASTIAO DO PASSE,BA,-12.5123,-38.4905,2929503
SAPEACU,BA,-12.7208,-39.1824,2929602
SATIRO DIAS,BA,-11.5929,-38.5938,2929701
SAUBARA,BA,-12.7387,-38.7625,2929750
SAUDE,BA,-10.9428,-40.4155,2929800
SEABRA,BA,-12.4169,-41.7722,2929909
SEBASTIAO LARANJEIRAS,BA,-14.571,-42.9434,2930006
SENHOR DO BONFIM,BA,-10.4594,-40.1865,2930105
SENTO SE,BA,-9.74138,-41.8786,2930204
SERRA DO RAMALHO,BA,-13.5659,-43.5929,2930154
SERRA DOURADA,BA,-12.759,-43.9504,2930303
SERRA PRETA,BA,-12.156,-39.3305,2930402
SERRINHA,BA,-11.6584,-39.01,2930501
SERROLANDIA,BA,-11.4085,-40.2983,2930600
SIMOES FILHO,BA,-12.7866,-38.4029,2930709
SITIO DO MATO,BA,-13.0801,-43.4689,2930758
SITIO DO QUINTO,BA,-10.3545,-38.2213,2930766
SOBRADINHO,BA,-9.45024,-40.8145,2930774
SOUTO SOARES,BA,-12.088,-41.6427,2930808
TABOCAS DO BREJO VELHO,BA,-12.7026,-44.0075,2930907
TANHACU,BA,-14.0197,-41.2473,2931004
TANQUE NOVO,BA,-13.5485,-42.4934,2931053
TANQUINHO,BA,-11.968,-39.1033,2931103
TAPEROA,BA,-13.5321,-39.1009,2931202
TAPIRAMUTA,BA,-11.8475,-40.7927,2931301
TEIXEIRA DE FREITAS,BA,-17.5399,-39.74,2931350
TEODORO SAMPAIO,BA,-12.295,-38.6347,2931400
TEOFILANDIA,BA,-11.4827,-38.9913,2931509
TEOLANDIA,BA,-13.5896,-39.484,2931608
TERRA NOVA,BA,-12.3888,-38.6238,2931707
TREMEDAL,BA,-14.9736,-41.4142,2931806
TUCANO,BA,-10.9584,-38.7894,2931905
UAUA,BA,-9.83325,-39.4794,2932002
UBAIRA,BA,-13.2714,-39.666,2932101
UBAITABA,BA,-14.303,-39.3222,2932200
UBATA,BA,-14.2063,-39.5207,2932309
UIBAI,BA,-11.3394,-42.1354,2932408
UMBURANAS,BA,-10.7339,-41.3234,2932457
UNA,BA,-15.2791,-39.0765,2932507
URANDI,BA,-14.7678,-42.6498,2932606
URUCUCA,BA,-14.5963,-39.2851,2932705
UTINGA,BA,-12.0783,-41.0954,2932804
VALENCA,BA,-13.3669,-39.073,2932903
VALENTE,BA,-11.4062,-39.457,2933000
VARZEA DA ROCA,BA,-11.6005,-40.1328,2933059
VARZEA DO POCO,BA,-11.5273,-40.3149,2933109
VARZEA NOVA,BA,-11.2557,-40.9432,2933158
VARZEDO,BA,-12.9672,-39.3919,2933174
VERA CRUZ,BA,-12.9568,-38.6153,2933208
VEREDA,BA,-17.2183,-40.0974,2933257
VITORIA DA CONQUISTA,BA,-14.8615,-40.8442,2933307
WAGNER,BA,-12.2819,-41.1715,2933406
WANDERLEY,BA,-12.1144,-43.8958,2933455
WENCESLAU GUIMARAES,BA,-13.6908,-39.4762,2933505
XIQUE-XIQUE,BA,-10.823,-42.7245,2933604
ABAIARA,CE,-7.34588,-39.0416,2300101
ACARAPE,CE,-4.22083,-38.7055,2300150
ACARAU,CE,-2.88769,-40.1183,2300200
ACOPIARA,CE,-6.08911,-39.448,2300309
AIUABA,CE,-6.57122,-40.1178,2300408
ALCANTARAS,CE,-3.58537,-40.5479,2300507
ALTANEIRA,CE,-6.99837,-39.7356,2300606
ALTO SANTO,CE,-5.50894,-38.2743,2300705
AMONTADA,CE,-3.36017,-39.8288,2300754
ANTONINA DO NORTE,CE,-6.76919,-39.987,2300804
APUIARES,CE,-3.94506,-39.4359,2300903
AQUIRAZ,CE,-3.89929,-38.3896,2301000
ARACATI,CE,-4.55826,-37.7679,2301109
ARACOIABA,CE,-4.36872,-38.8125,2301208
ARARENDA,CE,-4.74567,-40.831,2301257
ARARIPE,CE,-7.21319,-40.1359,2301307
ARATUBA,CE,-4.41229,-39.0471,2301406
ARNEIROZ,CE,-6.3165,-40.1653,2301505
ASSARE,CE,-6.8669,-39.8689,2301604
AURORA,CE,-6.93349,-38.9742,2301703
BAIXIO,CE,-6.71945,-38.7134,2301802
BANABUIU,CE,-5.30454,-38.9132,2301851
BARBALHA,CE,-7.2982,-39.3021,2301901
BARREIRA,CE,-4.28921,-38.6429,2301950
BARRO,CE,-7.17188,-38.7741,2302008
BARROQUINHA,CE,-3.02051,-41.1358,2302057
BATURITE,CE,-4.32598,-38.8812,2302107
BEBERIBE,CE,-4.17741,-38.1271,2302206
BELA CRUZ,CE,-3.04996,-40.1671,2302305
BOA VIAGEM,CE,-5.11258,-39.7337,2302404
BREJO SANTO,CE,-7.48469,-38.9799,2302503
CAMOCIM,CE,-2.9005,-40.8544,2302602
CAMPOS SALES,CE,-7.06761,-40.3687,2302701
CANINDE,CE,-4.35162,-39.3155,2302800
CAPISTRANO,CE,-4.45569,-38.9048,2302909
CARIDADE,CE,-4.22514,-39.1912,2303006
CARIRE,CE,-3.94858,-40.476,2303105
CARIRIACU,CE,-7.02808,-39.2828,2303204
CARIUS,CE,-6.52428,-39.4916,2303303
CARNAUBAL,CE,-4.15985,-40.9413,2303402
CASCAVEL,CE,-4.12967,-38.2412,2303501
CATARINA,CE,-6.12291,-39.8736,2303600
CATUNDA,CE,-4.64336,-40.2,2303659
CAUCAIA,CE,-3.72797,-38.6619,2303709
CEDRO,CE,-6.60034,-39.0609,2303808
CHAVAL,CE,-3.03571,-41.2435,2303907
CHORO,CE,-4.83906,-39.1344,2303931
CHOROZINHO,CE,-4.28873,-38.4986,2303956
COREAU,CE,-3.5415,-40.6587,2304004
CRATEUS,CE,-5.16768,-40.6536,2304103
CRATO,CE,-7.2153,-39.4103,2304202
CROATA,CE,-4.40481,-40.9022,2304236
CRUZ,CE,-2.91813,-40.176,2304251
DEPUTADO IRAPUAN PINHEIRO,CE,-5.91485,-39.257,2304269
ERERE,CE,-6.02751,-38.3461,2304277
EUSEBIO,CE,-3.8925,-38.4559,2304285
FARIAS BRITO,CE,-6.92146,-39.5651,2304301
FORQUILHA,CE,-3.79945,-40.2634,2304350
FORTALEZA,CE,-3.71664,-38.5423,2304400
FORTIM,CE,-4.45126,-37.7981,2304459
FRECHEIRINHA,CE,-3.75557,-40.818,2304509
GENERAL SAMPAIO,CE,-4.04351,-39.454,2304608
GRACA,CE,-4.04422,-40.749,2304657
GRANJA,CE,-3.12788,-40.8372,2304707
GRANJEIRO,CE,-6.88134,-39.2144,2304806
GROAIRAS,CE,-3.91787,-40.3852,2304905
GUAIUBA,CE,-4.04057,-38.6404,2304954
GUARACIABA DO NORTE,CE,-4.15814,-40.7476,2305001
GUARAMIRANGA,CE,-4.26248,-38.932,2305100
HIDROLANDIA,CE,-4.40958,-40.4056,2305209
HORIZONTE,CE,-4.1209,-38.4707,2305233
IBARETAMA,CE,-4.80376,-38.7501,2305266
IBIAPINA,CE,-3.92403,-40.8911,2305308
IBICUITINGA,CE,-4.96999,-38.6362,2305332
ICAPUI,CE,-4.71206,-37.3531,2305357
ICO,CE,-6.39627,-38.8554,2305407
IGUATU,CE,-6.36281,-39.2892,2305506
INDEPENDENCIA,CE,-5.38789,-40.3085,2305605
IPAPORANGA,CE,-4.89764,-40.7537,2305654
IPAUMIRIM,CE,-6.78265,-38.7179,2305704
IPU,CE,-4.31748,-40.7059,2305803
IPUEIRAS,CE,-4.53802,-40.7118,2305902
IRACEMA,CE,-5.8124,-38.2919,2306009
IRAUCUBA,CE,-3.74737,-39.7843,2306108
ITAICABA,CE,-4.67146,-37.833,2306207
ITAITINGA,CE,-3.96577,-38.5298,2306256
ITAPAGE,CE,-3.68314,-39.5855,2306306
ITAPIPOCA,CE,-3.49933,-39.5836,2306405
ITAPIUNA,CE,-4.55516,-38.9281,2306504
ITAREMA,CE,-2.9248,-39.9167,2306553
ITATIRA,CE,-4.52608,-39.6202,2306603
JAGUARETAMA,CE,-5.6051,-38.7639,2306702
JAGUARIBARA,CE,-5.67765,-38.5359,2306801
JAGUARIBE,CE,-5.90213,-38.6227,2306900
JAGUARUANA,CE,-4.83151,-37.781,2307007
JARDIM,CE,-7.57599,-39.2826,2307106
JATI,CE,-7.6797,-39.0029,2307205
JIJOCA DE JERICOACOARA,CE,-2.79331,-40.5127,2307254
JUAZEIRO DO NORTE,CE,-7.19621,-39.3076,2307304
JUCAS,CE,-6.51523,-39.5187,2307403
LAVRAS DA MANGABEIRA,CE,-6.7448,-38.9706,2307502
LIMOEIRO DO NORTE,CE,-5.14392,-38.0847,2307601
MADALENA,CE,-4.84601,-39.5725,2307635
MARACANAU,CE,-3.86699,-38.6259,2307650
MARANGUAPE,CE,-3.89143,-38.6829,2307700
MARCO,CE,-3.1285,-40.1582,2307809
MARTINOPOLE,CE,-3.2252,-40.6896,2307908
MASSAPE,CE,-3.52364,-40.3423,2308005
MAURITI,CE,-7.38597,-38.7708,2308104
MERUOCA,CE,-3.53974,-40.4531,2308203
MILAGRES,CE,-7.29749,-38.9378,2308302
MILHA,CE,-5.67252,-39.1875,2308351
MIRAIMA,CE,-3.56867,-39.9663,2308377
MISSAO VELHA,CE,-7.23522,-39.143,2308401
MOMBACA,CE,-5.73844,-39.63,2308500
MONSENHOR TABOSA,CE,-4.79102,-40.0646,2308609
MORADA NOVA,CE,-5.09736,-38.3702,2308708
MORAUJO,CE,-3.46311,-40.6776,2308807
MORRINHOS,CE,-3.23426,-40.1233,2308906
MUCAMBO,CE,-3.90271,-40.7452,2309003
MULUNGU,CE,-4.30294,-38.9951,2309102
NOVA OLINDA,CE,-7.08415,-39.6713,2309201
NOVA RUSSAS,CE,-4.70581,-40.5621,2309300
NOVO ORIENTE,CE,-5.52552,-40.7713,2309409
OCARA,CE,-4.48523,-38.5933,2309458
OROS,CE,-6.25182,-38.9053,2309508
PACAJUS,CE,-4.17107,-38.465,2309607
PACATUBA,CE,-3.9784,-38.6183,2309706
PACOTI,CE,-4.22492,-38.922,2309805
PACUJA,CE,-3.98327,-40.6989,2309904
PALHANO,CE,-4.73672,-37.9655,2310001
PALMACIA,CE,-4.13831,-38.8446,2310100
PARACURU,CE,-3.41436,-39.03,2310209
PARAIPABA,CE,-3.43799,-39.1479,2310258
PARAMBU,CE,-6.20768,-40.6905,2310308
PARAMOTI,CE,-4.08815,-39.2417,2310407
PEDRA BRANCA,CE,-5.45341,-39.7078,2310506
PENAFORTE,CE,-7.82163,-39.0707,2310605
PENTECOSTE,CE,-3.79274,-39.2692,2310704
PEREIRO,CE,-6.03576,-38.4624,2310803
PINDORETAMA,CE,-4.01584,-38.3061,2310852
PIQUET CARNEIRO,CE,-5.80025,-39.417,2310902
PIRES FERREIRA,CE,-4.23922,-40.6442,2310951
PORANGA,CE,-4.74672,-40.9205,2311009
PORTEIRAS,CE,-7.52265,-39.114,2311108
POTENGI,CE,-7.09154,-40.0233,2311207
POTIRETAMA,CE,-5.71287,-38.1578,2311231
QUITERIANOPOLIS,CE,-5.8425,-40.7002,2311264
QUIXADA,CE,-4.9663,-39.0155,2311306
QUIXELO,CE,-6.24637,-39.2011,2311355
QUIXERAMOBIM,CE,-5.19067,-39.2889,2311405
QUIXERE,CE,-5.07148,-37.9802,2311504
REDENCAO,CE,-4.21587,-38.7277,2311603
RERIUTABA,CE,-4.14191,-40.5759,2311702
RUSSAS,CE,-4.92673,-37.9721,2311801
SABOEIRO,CE,-6.5346,-39.9017,2311900
SALITRE,CE,-7.28398,-40.45,2311959
SANTA QUITERIA,CE,-4.32608,-40.1523,2312205
SANTANA DO ACARAU,CE,-3.46144,-40.2118,2312007
SANTANA DO CARIRI,CE,-7.17613,-39.7302,2312106
SAO BENEDITO,CE,-4.04713,-40.8596,2312304
SAO GONCALO DO AMARANTE,CE,-3.60515,-38.9726,2312403
SAO JOAO DO JAGUARIBE,CE,-5.27516,-38.2694,2312502
SAO LUIS DO CURU,CE,-3.66976,-39.2391,2312601
SENADOR POMPEU,CE,-5.58244,-39.3704,2312700
SENADOR SA,CE,-3.35305,-40.4662,2312809
SOBRAL,CE,-3.68913,-40.3482,2312908
SOLONOPOLE,CE,-5.71894,-39.0107,2313005
TABULEIRO DO NORTE,CE,-5.24353,-38.1282,2313104
TAMBORIL,CE,-4.83136,-40.3196,2313203
TARRAFAS,CE,-6.67838,-39.753,2313252
TAUA,CE,-5.98585,-40.2968,2313302
TEJUCUOCA,CE,-3.98831,-39.5799,2313351
TIANGUA,CE,-3.72965,-40.9923,2313401
TRAIRI,CE,-3.26932,-39.2681,2313500
TURURU,CE,-3.58413,-39.4297,2313559
UBAJARA,CE,-3.85448,-40.9204,2313609
UMARI,CE,-6.63893,-38.7008,2313708
UMIRIM,CE,-3.67654,-39.3465,2313757
URUBURETAMA,CE,-3.62316,-39.5107,2313807
URUOCA,CE,-3.30819,-40.5628,2313906
VARJOTA,CE,-4.19387,-40.4741,2313955
VARZEA ALEGRE,CE,-6.78264,-39.2942,2314003
VICOSA DO CEARA,CE,-3.5667,-41.0916,2314102
BRASILIA,DF,-15.7795,-47.9297,5300108
AFONSO CLAUDIO,ES,-20.0778,-41.1261,3200102
AGUA DOCE DO NORTE,ES,-18.5482,-40.9854,3200169
AGUIA BRANCA,ES,-18.9846,-40.7437,3200136
ALEGRE,ES,-20.758,-41.5382,3200201
ALFREDO CHAVES,ES,-20.6396,-40.7543,3200300
ALTO RIO NOVO,ES,-19.0618,-41.0209,3200359
ANCHIETA,ES,-20.7955,-40.6425,3200409
APIACA,ES,-21.1523,-41.5693,3200508
ARACRUZ,ES,-19.82,-40.2764,3200607
ATILIO VIVACQUA,ES,-20.913,-41.1986,3200706
BAIXO GUANDU,ES,-19.5213,-41.0109,3200805
BARRA DE SAO FRANCISCO,ES,-18.7548,-40.8965,3200904
BOA ESPERANCA,ES,-18.5395,-40.3025,3201001
BOM JESUS DO NORTE,ES,-21.1173,-41.6731,3201100
BREJETUBA,ES,-20.1395,-41.2954,3201159
CACHOEIRO DE ITAPEMIRIM,ES,-20.8462,-41.1198,3201209
CARIACICA,ES,-20.2632,-40.4165,3201308
CASTELO,ES,-20.6033,-41.2031,3201407
COLATINA,ES,-19.5493,-40.6269,3201506
CONCEICAO DA BARRA,ES,-18.5883,-39.7362,3201605
CONCEICAO DO CASTELO,ES,-20.3639,-41.2417,3201704
DIVINO DE SAO LOURENCO,ES,-20.6229,-41.6937,3201803
DOMINGOS MARTINS,ES,-20.3603,-40.6594,3201902
DORES DO RIO PRETO,ES,-20.6931,-41.8405,3202009
ECOPORANGA,ES,-18.3702,-40.836,3202108
FUNDAO,ES,-19.937,-40.4078,3202207
GOVERNADOR LINDENBERG,ES,-19.1864,-40.4473,3202256
GUACUI,ES,-20.7668,-41.6734,3202306
GUARAPARI,ES,-20.6772,-40.5093,3202405
IBATIBA,ES,-20.2347,-41.5087,3202454
IBIRACU,ES,-19.8366,-40.3732,3202504
IBITIRAMA,ES,-20.5466,-41.6667,3202553
ICONHA,ES,-20.7913,-40.8132,3202603
IRUPI,ES,-20.3501,-41.6444,3202652
ITAGUACU,ES,-19.8018,-40.8601,3202702
ITAPEMIRIM,ES,-21.0095,-40.8307,3202801
ITARANA,ES,-19.875,-40.8753,3202900
IUNA,ES,-20.3531,-41.5334,3203007
JAGUARE,ES,-18.907,-40.0759,3203056
JERONIMO MONTEIRO,ES,-20.7994,-41.3948,3203106
JOAO NEIVA,ES,-19.7577,-40.386,3203130
LARANJA DA TERRA,ES,-19.8994,-41.0621,3203163
LINHARES,ES,-19.3946,-40.0643,3203205
MANTENOPOLIS,ES,-18.8594,-41.124,3203304
MARATAIZES,ES,-21.0398,-40.8384,3203320
MARECHAL FLORIANO,ES,-20.4159,-40.67,3203346
MARILANDIA,ES,-19.4114,-40.5456,3203353
MIMOSO DO SUL,ES,-21.0628,-41.3615,3203403
MONTANHA,ES,-18.1303,-40.3668,3203502
MUCURICI,ES,-18.0965,-40.52,3203601
MUNIZ FREIRE,ES,-20.4652,-41.4156,3203700
MUQUI,ES,-20.9509,-41.346,3203809
NOVA VENECIA,ES,-18.715,-40.4053,3203908
PANCAS,ES,-19.2229,-40.8534,3204005
PEDRO CANARIO,ES,-18.3004,-39.9574,3204054
PINHEIROS,ES,-18.4141,-40.2171,3204104
PIUMA,ES,-20.8334,-40.7268,3204203
PONTO BELO,ES,-18.1253,-40.5458,3204252
PRESIDENTE KENNEDY,ES,-21.0964,-41.0468,3204302
RIO BANANAL,ES,-19.2719,-40.3366,3204351
RIO NOVO DO SUL,ES,-20.8556,-40.9388,3204401
SANTA LEOPOLDINA,ES,-20.0999,-40.527,3204500
SANTA MARIA DE JETIBA,ES,-20.0253,-40.7439,3204559
SANTA TERESA,ES,-19.9363,-40.5979,3204609
SAO DOMINGOS DO NORTE,ES,-19.1452,-40.6281,3204658
SAO GABRIEL DA PALHA,ES,-19.0182,-40.5365,3204708
SAO JOSE DO CALCADO,ES,-21.0274,-41.6636,3204807
SAO MATEUS,ES,-18.7214,-39.8579,3204906
SAO ROQUE DO CANAA,ES,-19.7411,-40.6526,3204955
SERRA,ES,-20.121,-40.3074,3205002
SOORETAMA,ES,-19.1897,-40.0974,3205010
VARGEM ALTA,ES,-20.669,-41.0179,3205036
VENDA NOVA DO IMIGRANTE,ES,-20.327,-41.1355,3205069
VIANA,ES,-20.3825,-40.4933,3205101
VILA PAVAO,ES,-18.6091,-40.609,3205150
VILA VALERIO,ES,-18.9958,-40.3849,3205176
VILA VELHA,ES,-20.3417,-40.2875,3205200
VITORIA,ES,-20.3155,-40.3128,3205309
ABADIA DE GOIAS,GO,-16.7573,-49.4412,5200050
ABADIANIA,GO,-16.197,-48.7057,5200100
ACREUNA,GO,-17.396,-50.3749,5200134
ADELANDIA,GO,-16.4127,-50.1657,5200159
AGUA FRIA DE GOIAS,GO,-14.9778,-47.7823,5200175
AGUA LIMPA,GO,-18.0771,-48.7603,5200209
AGUAS LINDAS DE GOIAS,GO,-15.7617,-48.2816,5200258
ALEXANIA,GO,-16.0834,-48.5076,5200308
ALOANDIA,GO,-17.7292,-49.4769,5200506
ALTO HORIZONTE,GO,-14.1978,-49.3378,5200555
ALTO PARAISO DE GOIAS,GO,-14.1305,-47.51,5200605
ALVORADA DO NORTE,GO,-14.4797,-46.491,5200803
AMARALINA,GO,-13.9236,-49.2962,5200829
AMERICANO DO BRASIL,GO,-16.2514,-49.9831,5200852
AMORINOPOLIS,GO,-16.6151,-51.0919,5200902
ANAPOLIS,GO,-16.3281,-48.953,5201108
ANHANGUERA,GO,-18.3339,-48.2204,5201207
ANICUNS,GO,-16.4642,-49.9617,5201306
APARECIDA DE GOIANIA,GO,-16.8198,-49.2469,5201405
APARECIDA DO RIO DOCE,GO,-18.2941,-51.1516,5201454
APORE,GO,-18.9607,-51.9232,5201504
ARACU,GO,-16.3563,-49.6804,5201603
ARAGARCAS,GO,-15.8955,-52.2372,5201702
ARAGOIANIA,GO,-16.9087,-49.4476,5201801
ARAGUAPAZ,GO,-15.0909,-50.6315,5202155
ARENOPOLIS,GO,-16.3837,-51.5563,5202353
ARUANA,GO,-14.9166,-51.075,5202502
AURILANDIA,GO,-16.6773,-50.4641,5202601
AVELINOPOLIS,GO,-16.4672,-49.7579,5202809
BALIZA,GO,-16.1966,-52.5393,5203104
BARRO ALTO,GO,-14.9658,-48.9086,5203203
BELA VISTA DE GOIAS,GO,-16.9693,-48.9513,5203302
BOM JARDIM DE GOIAS,GO,-16.2063,-52.1728,5203401
BOM JESUS DE GOIAS,GO,-18.2173,-49.74,5203500
BONFINOPOLIS,GO,-16.6173,-48.9616,5203559
BONOPOLIS,GO,-13.6329,-49.8106,5203575
BRAZABRANTES,GO,-16.4281,-49.3863,5203609
BRITANIA,GO,-15.2428,-51.1602,5203807
BURITI ALEGRE,GO,-18.1378,-49.0404,5203906
BURITI DE GOIAS,GO,-16.1792,-50.4302,5203939
BURITINOPOLIS,GO,-14.4772,-46.4076,5203962
CABECEIRAS,GO,-15.7995,-46.9265,5204003
CACHOEIRA ALTA,GO,-18.7618,-50.9432,5204102
CACHOEIRA DE GOIAS,GO,-16.6635,-50.646,5204201
CACHOEIRA DOURADA,GO,-18.4859,-49.4766,5204250
CACU,GO,-18.5594,-51.1328,5204300
CAIAPONIA,GO,-16.9539,-51.8091,5204409
CALDAS NOVAS,GO,-17.7441,-48.6246,5204508
CALDAZINHA,GO,-16.7117,-49.0013,5204557
CAMPESTRE DE GOIAS,GO,-16.7624,-49.695,5204607
CAMPINACU,GO,-13.787,-48.5704,5204656
CAMPINORTE,GO,-14.3137,-49.1511,5204706
CAMPO ALEGRE DE GOIAS,GO,-17.6363,-47.7768,5204805
CAMPO LIMPO DE GOIAS,GO,-16.2971,-49.0895,5204854
CAMPOS BELOS,GO,-13.035,-46.7681,5204904
CAMPOS VERDES,GO,-14.2442,-49.6528,5204953
CARMO DO RIO VERDE,GO,-15.3549,-49.708,5205000
CASTELANDIA,GO,-18.0921,-50.203,5205059
CATALAO,GO,-18.1656,-47.944,5205109
CATURAI,GO,-16.4447,-49.4936,5205208
CAVALCANTE,GO,-13.7976,-47.4566,5205307
CERES,GO,-15.3061,-49.6,5205406
CEZARINA,GO,-16.9718,-49.7758,5205455
CHAPADAO DO CEU,GO,-18.4073,-52.549,5205471
CIDADE OCIDENTAL,GO,-16.0765,-47.9252,5205497
COCALZINHO DE GOIAS,GO,-15.7914,-48.7747,5205513
COLINAS DO SUL,GO,-14.1528,-48.076,5205521
CORREGO DO OURO,GO,-16.2918,-50.5503,5205703
CORUMBA DE GOIAS,GO,-15.9245,-48.8117,5205802
CORUMBAIBA,GO,-18.1415,-48.5626,5205901
CRISTALINA,GO,-16.7676,-47.6131,5206206
CRISTIANOPOLIS,GO,-17.1987,-48.7034,5206305
CRIXAS,GO,-14.5412,-49.974,5206404
CROMINIA,GO,-17.2883,-49.3798,5206503
CUMARI,GO,-18.2644,-48.1511,5206602
DAMIANOPOLIS,GO,-14.5604,-46.178,5206701
DAMOLANDIA,GO,-16.2544,-49.3631,5206800
DAVINOPOLIS,GO,-18.1501,-47.5568,5206909
DIORAMA,GO,-16.2329,-51.2543,5207105
DIVINOPOLIS DE GOIAS,GO,-13.2853,-46.3999,5208301
DOVERLANDIA,GO,-16.7188,-52.3189,5207253
EDEALINA,GO,-17.4239,-49.6644,5207352
EDEIA,GO,-17.3406,-49.9295,5207402
ESTRELA DO NORTE,GO,-13.8665,-49.0716,5207501
FAINA,GO,-15.4473,-50.3622,5207535
FAZENDA NOVA,GO,-16.1834,-50.7781,5207600
FIRMINOPOLIS,GO,-16.5778,-50.304,5207808
FLORES DE GOIAS,GO,-14.4451,-47.0417,5207907
FORMOSA,GO,-15.54,-47.337,5208004
FORMOSO,GO,-13.6499,-48.8775,5208103
GAMELEIRA DE GOIAS,GO,-16.4854,-48.6454,5208152
GOIANAPOLIS,GO,-16.5098,-49.0234,5208400
GOIANDIRA,GO,-18.1352,-48.0875,5208509
GOIANESIA,GO,-15.3118,-49.1162,5208608
GOIANIA,GO,-16.6864,-49.2643,5208707
GOIANIRA,GO,-16.4947,-49.427,5208806
GOIAS,GO,-15.9333,-50.14,5208905
GOIATUBA,GO,-18.0105,-49.3658,5209101
GOUVELANDIA,GO,-18.6238,-50.0805,5209150
GUAPO,GO,-16.8297,-49.5345,5209200
GUARAITA,GO,-15.6121,-50.0265,5209291
GUARANI DE GOIAS,GO,-13.9421,-46.4868,5209408
GUARINOS,GO,-14.7292,-49.7006,5209457
HEITORAI,GO,-15.719,-49.8268,5209606
HIDROLANDIA,GO,-16.9626,-49.2265,5209705
HIDROLINA,GO,-14.7261,-49.4634,5209804
IACIARA,GO,-14.1011,-46.6335,5209903
INACIOLANDIA,GO,-18.4869,-49.9888,5209937
INDIARA,GO,-17.1387,-49.9862,5209952
INHUMAS,GO,-16.3611,-49.5001,5210000
IPAMERI,GO,-17.7215,-48.1581,5210109
IPIRANGA DE GOIAS,GO,-15.1689,-49.6695,5210158
IPORA,GO,-16.4398,-51.118,5210208
ISRAELANDIA,GO,-16.3144,-50.9087,5210307
ITABERAI,GO,-16.0206,-49.806,5210406
ITAGUARI,GO,-15.918,-49.6071,5210562
ITAGUARU,GO,-15.7565,-49.6354,5210604
ITAJA,GO,-19.0673,-51.5495,5210802
ITAPACI,GO,-14.9522,-49.5511,5210901
ITAPIRAPUA,GO,-15.8205,-50.6094,5211008
ITAPURANGA,GO,-15.5606,-49.949,5211206
ITARUMA,GO,-18.7646,-51.3485,5211305
ITAUCU,GO,-16.2029,-49.6109,5211404
ITUMBIARA,GO,-18.4093,-49.2158,5211503
IVOLANDIA,GO,-16.5995,-50.7921,5211602
JANDAIA,GO,-17.0481,-50.1453,5211701
JARAGUA,GO,-15.7529,-49.3344,5211800
JATAI,GO,-17.8784,-51.7204,5211909
JAUPACI,GO,-16.1773,-50.9508,5212006
JESUPOLIS,GO,-15.9484,-49.3739,5212055
JOVIANIA,GO,-17.802,-49.6197,5212105
JUSSARA,GO,-15.8659,-50.8668,5212204
LAGOA SANTA,GO,-19.1832,-51.3998,5212253
LEOPOLDO DE BULHOES,GO,-16.619,-48.7428,5212303
LUZIANIA,GO,-16.253,-47.95,5212501
MAIRIPOTABA,GO,-17.2975,-49.4898,5212600
MAMBAI,GO,-14.4823,-46.1165,5212709
MARA ROSA,GO,-14.0148,-49.1777,5212808
MARZAGAO,GO,-17.983,-48.6415,5212907
MATRINCHA,GO,-15.4342,-50.7456,5212956
MAURILANDIA,GO,-17.9719,-50.3388,5213004
MIMOSO DE GOIAS,GO,-15.0515,-48.1611,5213053
MINACU,GO,-13.5304,-48.2206,5213087
MINEIROS,GO,-17.5654,-52.5537,5213103
MOIPORA,GO,-16.5434,-50.739,5213400
MONTE ALEGRE DE GOIAS,GO,-13.2552,-46.8928,5213509
MONTES CLAROS DE GOIAS,GO,-16.0059,-51.3979,5213707
MONTIVIDIU,GO,-17.4439,-51.1728,5213756
MONTIVIDIU DO NORTE,GO,-13.3485,-48.6853,5213772
MORRINHOS,GO,-17.7334,-49.1059,5213806
MORRO AGUDO DE GOIAS,GO,-15.3184,-50.0553,5213855
MOSSAMEDES,GO,-16.124,-50.2136,5213905
MOZARLANDIA,GO,-14.7457,-50.5713,5214002
MUNDO NOVO,GO,-13.7729,-50.2814,5214051
MUTUNOPOLIS,GO,-13.7303,-49.2745,5214101
NAZARIO,GO,-16.5808,-49.8817,5214408
NEROPOLIS,GO,-16.4047,-49.2227,5214507
NIQUELANDIA,GO,-14.4662,-48.4599,5214606
NOVA AMERICA,GO,-15.0206,-49.8953,5214705
NOVA AURORA,GO,-18.0597,-48.2552,5214804
NOVA CRIXAS,GO,-14.0957,-50.33,5214838
NOVA GLORIA,GO,-15.145,-49.5737,5214861
NOVA IGUACU DE GOIAS,GO,-14.2868,-49.3872,5214879
NOVA ROMA,GO,-13.7388,-46.8734,5214903
NOVA VENEZA,GO,-16.3695,-49.3168,5215009
NOVO BRASIL,GO,-16.0313,-50.7113,5215207
NOVO GAMA,GO,-16.0592,-48.0417,5215231
NOVO PLANALTO,GO,-13.2424,-49.506,5215256
ORIZONA,GO,-17.0334,-48.2964,5215306
OURO VERDE DE GOIAS,GO,-16.2181,-49.1942,5215405
OUVIDOR,GO,-18.2277,-47.8355,5215504
PADRE BERNARDO,GO,-15.1605,-48.2833,5215603
PALESTINA DE GOIAS,GO,-16.7392,-51.5309,5215652
PALMEIRAS DE GOIAS,GO,-16.8044,-49.924,5215702
PALMELO,GO,-17.3258,-48.426,5215801
PALMINOPOLIS,GO,-16.7924,-50.1652,5215900
PANAMA,GO,-18.1783,-49.355,5216007
PARANAIGUARA,GO,-18.9141,-50.6539,5216304
PARAUNA,GO,-16.9463,-50.4484,5216403
PEROLANDIA,GO,-17.5258,-52.065,5216452
PETROLINA DE GOIAS,GO,-16.0968,-49.3364,5216809
PILAR DE GOIAS,GO,-14.7608,-49.5784,5216908
PIRACANJUBA,GO,-17.302,-49.017,5217104
PIRANHAS,GO,-16.4258,-51.8235,5217203
PIRENOPOLIS,GO,-15.8507,-48.9584,5217302
PIRES DO RIO,GO,-17.3019,-48.2768,5217401
PLANALTINA,GO,-15.452,-47.6089,5217609
PONTALINA,GO,-17.5225,-49.4489,5217708
PORANGATU,GO,-13.4391,-49.1503,5218003
PORTEIRAO,GO,-17.8143,-50.1653,5218052
PORTELANDIA,GO,-17.3554,-52.6799,5218102
POSSE,GO,-14.0859,-46.3704,5218300
PROFESSOR JAMIL,GO,-17.2497,-49.244,5218391
QUIRINOPOLIS,GO,-18.4472,-50.4547,5218508
RIALMA,GO,-15.3145,-49.5814,5218607
RIANAPOLIS,GO,-15.4456,-49.5114,5218706
RIO QUENTE,GO,-17.774,-48.7725,5218789
RIO VERDE,GO,-17.7923,-50.9192,5218805
RUBIATABA,GO,-15.1617,-49.8048,5218904
SANCLERLANDIA,GO,-16.197,-50.3124,5219001
SANTA BARBARA DE GOIAS,GO,-16.5714,-49.6954,5219100
SANTA CRUZ DE GOIAS,GO,-17.3155,-48.4809,5219209
SANTA FE DE GOIAS,GO,-15.7664,-51.1037,5219258
SANTA HELENA DE GOIAS,GO,-17.8115,-50.5977,5219308
SANTA ISABEL,GO,-15.2958,-49.4259,5219357
SANTA RITA DO ARAGUAIA,GO,-17.3269,-53.2012,5219407
SANTA RITA DO NOVO DESTINO,GO,-15.1351,-49.1203,5219456
SANTA ROSA DE GOIAS,GO,-16.084,-49.4953,5219506
SANTA TEREZA DE GOIAS,GO,-13.7138,-49.0144,5219605
SANTA TEREZINHA DE GOIAS,GO,-14.4326,-49.7091,5219704
SANTO ANTONIO DA BARRA,GO,-17.5585,-50.6345,5219712
SANTO ANTONIO DE GOIAS,GO,-16.4815,-49.3096,5219738
SANTO ANTONIO DO DESCOBERTO,GO,-15.9412,-48.2578,5219753
SAO DOMINGOS,GO,-13.621,-46.7415,5219803
SAO FRANCISCO DE GOIAS,GO,-15.9256,-49.2605,5219902
SAO JOAO D ALIANCA,GO,-14.7048,-47.5228,5220009
SAO JOAO DA PARAUNA,GO,-16.8126,-50.4092,5220058
SAO LUIS DE MONTES BELOS,GO,-16.5211,-50.3726,5220108
SAO LUIZ DO NORTE,GO,-14.8608,-49.3285,5220157
SAO MIGUEL DO ARAGUAIA,GO,-13.2731,-50.1634,5220207
SAO MIGUEL DO PASSA QUATRO,GO,-17.0582,-48.662,5220264
SAO PATRICIO,GO,-15.35,-49.818,5220280
SAO SIMAO,GO,-18.996,-50.547,5220405
SENADOR CANEDO,GO,-16.7084,-49.0914,5220454
SERRANOPOLIS,GO,-18.3067,-51.9586,5220504
SILVANIA,GO,-16.66,-48.6083,5220603
SIMOLANDIA,GO,-14.4644,-46.4847,5220686
SITIO D ABADIA,GO,-14.7992,-46.2506,5220702
TAQUARAL DE GOIAS,GO,-16.0521,-49.6039,5221007
TERESINA DE GOIAS,GO,-13.7801,-47.2659,5221080
TEREZOPOLIS DE GOIAS,GO,-16.3945,-49.0797,5221197
TRES RANCHOS,GO,-18.3539,-47.776,5221304
TRINDADE,GO,-16.6517,-49.4927,5221403
TROMBAS,GO,-13.5079,-48.7417,5221452
TURVANIA,GO,-16.6125,-50.1369,5221502
TURVELANDIA,GO,-17.8502,-50.3024,5221551
UIRAPURU,GO,-14.2835,-49.9201,5221577
URUACU,GO,-14.5238,-49.1396,5221601
URUANA,GO,-15.4993,-49.6861,5221700
URUTAI,GO,-17.4651,-48.2015,5221809
VALPARAISO DE GOIAS,GO,-16.0651,-47.9757,5221858
VARJAO,GO,-17.0471,-49.6312,5221908
VIANOPOLIS,GO,-16.7405,-48.5159,5222005
VICENTINOPOLIS,GO,-17.7322,-49.8047,5222054
VILA BOA,GO,-15.0387,-47.052,5222203
VILA PROPICIO,GO,-15.4542,-48.8819,5222302
ACAILANDIA,MA,-4.94714,-47.5004,2100055
AFONSO CUNHA,MA,-4.13631,-43.3275,2100105
AGUA DOCE DO MARANHAO,MA,-2.84048,-42.1189,2100154
ALCANTARA,MA,-2.39574,-44.4062,2100204
ALDEIAS ALTAS,MA,-4.62621,-43.4689,2100303
ALTAMIRA DO MARANHAO,MA,-4.16598,-45.4706,2100402
ALTO ALEGRE DO MARANHAO,MA,-4.213,-44.446,2100436
ALTO ALEGRE DO PINDARE,MA,-3.66689,-45.8421,2100477
ALTO PARNAIBA,MA,-9.10273,-45.9303,2100501
AMAPA DO MARANHAO,MA,-1.67524,-46.0024,2100550
AMARANTE DO MARANHAO,MA,-5.56913,-46.7473,2100600
ANAJATUBA,MA,-3.26269,-44.6126,2100709
ANAPURUS,MA,-3.67577,-43.1014,2100808
APICUM-ACU,MA,-1.45862,-45.0864,2100832
ARAGUANA,MA,-2.94644,-45.6589,2100873
ARAIOSES,MA,-2.89091,-41.905,2100907
ARAME,MA,-4.88347,-46.0032,2100956
ARARI,MA,-3.45214,-44.7665,2101004
AXIXA,MA,-2.83939,-44.062,2101103
BACABAL,MA,-4.22447,-44.7832,2101202
BACABEIRA,MA,-2.96452,-44.3164,2101251
BACURI,MA,-1.6965,-45.1328,2101301
BACURITUBA,MA,-2.71,-44.7329,2101350
BALSAS,MA,-7.53214,-46.0372,2101400
BARAO DE GRAJAU,MA,-6.74463,-43.0261,2101509
BARRA DO CORDA,MA,-5.49682,-45.2485,2101608
BARREIRINHAS,MA,-2.75863,-42.8232,2101707
BELA VISTA DO MARANHAO,MA,-3.72618,-45.3075,2101772
BELAGUA,MA,-3.15485,-43.5122,2101731
BENEDITO LEITE,MA,-7.21037,-44.5577,2101806
BEQUIMAO,MA,-2.44162,-44.7842,2101905
BERNARDO DO MEARIM,MA,-4.62666,-44.7608,2101939
BOA VISTA DO GURUPI,MA,-1.77614,-46.3002,2101970
BOM JARDIM,MA,-3.54129,-45.606,2102002
BOM JESUS DAS SELVAS,MA,-4.47638,-46.8641,2102036
BOM LUGAR,MA,-4.37311,-45.0326,2102077
BREJO,MA,-3.67796,-42.7527,2102101
BREJO DE AREIA,MA,-4.334,-45.581,2102150
BURITI,MA,-3.94169,-42.9179,2102200
BURITI BRAVO,MA,-5.83239,-43.8353,2102309
BURITICUPU,MA,-4.32375,-46.4409,2102325
BURITIRANA,MA,-5.59823,-47.0131,2102358
CACHOEIRA GRANDE,MA,-2.93074,-44.0528,2102374
CAJAPIO,MA,-2.87326,-44.6741,2102408
CAJARI,MA,-3.32742,-45.0145,2102507
CAMPESTRE DO MARANHAO,MA,-6.17075,-47.3625,2102556
CANDIDO MENDES,MA,-1.43265,-45.7161,2102606
CANTANHEDE,MA,-3.63757,-44.383,2102705
CAPINZAL DO NORTE,MA,-4.7236,-44.328,2102754
CAROLINA,MA,-7.33584,-47.4634,2102804
CARUTAPERA,MA,-1.19696,-46.0085,2102903
CAXIAS,MA,-4.86505,-43.3617,2103000
CEDRAL,MA,-2.00027,-44.5281,2103109
CENTRAL DO MARANHAO,MA,-2.19831,-44.8254,2103125
CENTRO DO GUILHERME,MA,-2.44891,-46.0345,2103158
CENTRO NOVO DO MARANHAO,MA,-2.12696,-46.1228,2103174
CHAPADINHA,MA,-3.73875,-43.3538,2103208
CIDELANDIA,MA,-5.17465,-47.7781,2103257
CODO,MA,-4.45562,-43.8924,2103307
COELHO NETO,MA,-4.25245,-43.0108,2103406
COLINAS,MA,-6.03199,-44.2543,2103505
CONCEICAO DO LAGO-ACU,MA,-3.85142,-44.8895,2103554
COROATA,MA,-4.13442,-44.1244,2103604
CURURUPU,MA,-1.81475,-44.8644,2103703
DAVINOPOLIS,MA,-5.54637,-47.4217,2103752
DOM PEDRO,MA,-5.03518,-44.4409,2103802
DUQUE BACELAR,MA,-4.15002,-42.9477,2103901
ESPERANTINOPOLIS,MA,-4.87938,-44.6926,2104008
ESTREITO,MA,-6.56077,-47.4431,2104057
FEIRA NOVA DO MARANHAO,MA,-6.96508,-46.6786,2104073
FERNANDO FALCAO,MA,-6.16207,-44.8979,2104081
FORMOSA DA SERRA NEGRA,MA,-6.44017,-46.1916,2104099
FORTALEZA DOS NOGUEIRAS,MA,-6.95983,-46.1749,2104107
FORTUNA,MA,-5.72792,-44.1565,2104206
GODOFREDO VIANA,MA,-1.40259,-45.7795,2104305
GONCALVES DIAS,MA,-5.1475,-44.3013,2104404
GOVERNADOR ARCHER,MA,-5.02078,-44.2754,2104503
GOVERNADOR EDISON LOBAO,MA,-5.74973,-47.3646,2104552
GOVERNADOR EUGENIO BARROS,MA,-5.31897,-44.2469,2104602
GOVERNADOR LUIZ ROCHA,MA,-5.47835,-44.0774,2104628
GOVERNADOR NEWTON BELLO,MA,-3.43245,-45.6619,2104651
GOVERNADOR NUNES FREIRE,MA,-2.12899,-45.8777,2104677
GRACA ARANHA,MA,-5.40547,-44.3358,2104701
GRAJAU,MA,-5.81367,-46.1462,2104800
GUIMARAES,MA,-2.12755,-44.602,2104909
HUMBERTO DE CAMPOS,MA,-2.59828,-43.4649,2105005
ICATU,MA,-2.77206,-44.0501,2105104
IGARAPE DO MEIO,MA,-3.65771,-45.2114,2105153
IGARAPE GRANDE,MA,-4.6625,-44.8558,2105203
IMPERATRIZ,MA,-5.51847,-47.4777,2105302
ITAIPAVA DO GRAJAU,MA,-5.14252,-45.7877,2105351
ITAPECURU MIRIM,MA,-3.40202,-44.3508,2105401
ITINGA DO MARANHAO,MA,-4.45293,-47.5235,2105427
JATOBA,MA,-5.82282,-44.2153,2105450
JENIPAPO DOS VIEIRAS,MA,-5.36237,-45.6356,2105476
JOAO LISBOA,MA,-5.44363,-47.4064,2105500
JOSELANDIA,MA,-4.98611,-44.6958,2105609
JUNCO DO MARANHAO,MA,-1.83888,-46.09,2105658
LAGO DA PEDRA,MA,-4.56974,-45.1319,2105708
LAGO DO JUNCO,MA,-4.609,-45.049,2105807
LAGO DOS RODRIGUES,MA,-4.61173,-44.9798,2105948
LAGO VERDE,MA,-3.94661,-44.826,2105906
LAGOA DO MATO,MA,-6.05023,-43.5333,2105922
LAGOA GRANDE DO MARANHAO,MA,-4.98893,-45.3816,2105963
LAJEADO NOVO,MA,-6.18539,-47.0293,2105989
LIMA CAMPOS,MA,-4.51837,-44.4646,2106003
LORETO,MA,-7.08111,-45.1451,2106102
LUIS DOMINGUES,MA,-1.27492,-45.867,2106201
MAGALHAES DE ALMEIDA,MA,-3.39232,-42.2117,2106300
MARACACUME,MA,-2.04918,-45.9587,2106326
MARAJA DO SENA,MA,-4.62806,-45.4531,2106359
MARANHAOZINHO,MA,-2.24078,-45.8507,2106375
MATA ROMA,MA,-3.62035,-43.1112,2106409
MATINHA,MA,-3.09849,-45.035,2106508
MATOES,MA,-5.51359,-43.2018,2106607
MATOES DO NORTE,MA,-3.6244,-44.5468,2106631
MILAGRES DO MARANHAO,MA,-3.57443,-42.6131,2106672
MIRADOR,MA,-6.37454,-44.3683,2106706
MIRANDA DO NORTE,MA,-3.56313,-44.5814,2106755
MIRINZAL,MA,-2.07094,-44.7787,2106805
MONCAO,MA,-3.48125,-45.2496,2106904
MONTES ALTOS,MA,-5.83067,-47.0673,2107001
MORROS,MA,-2.85379,-44.0357,2107100
NINA RODRIGUES,MA,-3.46788,-43.9134,2107209
NOVA COLINAS,MA,-7.12263,-46.2607,2107258
NOVA IORQUE,MA,-6.73047,-44.0471,2107308
NOVA OLINDA DO MARANHAO,MA,-2.84227,-45.6953,2107357
OLHO D AGUA DAS CUNHAS,MA,-4.13417,-45.1163,2107407
OLINDA NOVA DO MARANHAO,MA,-2.99295,-44.9897,2107456
PACO DO LUMIAR,MA,-2.51657,-44.1019,2107506
PALMEIRANDIA,MA,-2.64433,-44.8933,2107605
PARAIBANO,MA,-6.4264,-43.9792,2107704
PARNARAMA,MA,-5.67365,-43.1011,2107803
PASSAGEM FRANCA,MA,-6.17745,-43.7755,2107902
PASTOS BONS,MA,-6.60296,-44.0745,2108009
PAULINO NEVES,MA,-2.72094,-42.5258,2108058
PAULO RAMOS,MA,-4.44485,-45.2398,2108108
PEDREIRAS,MA,-4.56482,-44.6006,2108207
PEDRO DO ROSARIO,MA,-2.97272,-45.3493,2108256
PENALVA,MA,-3.27674,-45.1768,2108306
PERI MIRIM,MA,-2.57676,-44.8504,2108405
PERITORO,MA,-4.37459,-44.3369,2108454
PINDARE-MIRIM,MA,-3.60985,-45.342,2108504
PINHEIRO,MA,-2.52224,-45.0788,2108603
PIO XII,MA,-3.89315,-45.1759,2108702
PIRAPEMAS,MA,-3.72041,-44.2216,2108801
POCAO DE PEDRAS,MA,-4.74626,-44.9432,2108900
PORTO FRANCO,MA,-6.34149,-47.3962,2109007
PORTO RICO DO MARANHAO,MA,-1.85925,-44.5842,2109056
PRESIDENTE DUTRA,MA,-5.2898,-44.495,2109106
PRESIDENTE JUSCELINO,MA,-2.91872,-44.0715,2109205
PRESIDENTE MEDICI,MA,-2.38991,-45.82,2109239
PRESIDENTE SARNEY,MA,-2.58799,-45.3595,2109270
PRESIDENTE VARGAS,MA,-3.40787,-44.0234,2109304
PRIMEIRA CRUZ,MA,-2.50568,-43.4232,2109403
RAPOSA,MA,-2.4254,-44.0973,2109452
RIACHAO,MA,-7.35819,-46.6225,2109502
RIBAMAR FIQUENE,MA,-5.93067,-47.3888,2109551
ROSARIO,MA,-2.93444,-44.2531,2109601
SAMBAIBA,MA,-7.13447,-45.3515,2109700
SANTA FILOMENA DO MARANHAO,MA,-5.49671,-44.5638,2109759
SANTA HELENA,MA,-2.24426,-45.29,2109809
SANTA INES,MA,-3.65112,-45.3774,2109908
SANTA LUZIA,MA,-4.06873,-45.69,2110005
SANTA LUZIA DO PARUA,MA,-2.51123,-45.7801,2110039
SANTA QUITERIA DO MARANHAO,MA,-3.49308,-42.5688,2110104
SANTA RITA,MA,-3.14241,-44.3211,2110203
SANTANA DO MARANHAO,MA,-3.109,-42.4064,2110237
SANTO AMARO DO MARANHAO,MA,-2.50068,-43.238,2110278
SANTO ANTONIO DOS LOPES,MA,-4.86613,-44.3653,2110302
SAO BENEDITO DO RIO PRETO,MA,-3.33515,-43.5287,2110401
SAO BENTO,MA,-2.69781,-44.8289,2110500
SAO BERNARDO,MA,-3.37223,-42.4191,2110609
SAO DOMINGOS DO AZEITAO,MA,-6.81471,-44.6509,2110658
SAO DOMINGOS DO MARANHAO,MA,-5.58095,-44.3822,2110708
SAO FELIX DE BALSAS,MA,-7.07535,-44.8092,2110807
SAO FRANCISCO DO BREJAO,MA,-5.12584,-47.389,2110856
SAO FRANCISCO DO MARANHAO,MA,-6.25159,-42.8668,2110906
SAO JOAO BATISTA,MA,-2.95398,-44.7953,2111003
SAO JOAO DO CARU,MA,-3.5503,-46.2507,2111029
SAO JOAO DO PARAISO,MA,-6.45634,-47.0594,2111052
SAO JOAO DO SOTER,MA,-5.10821,-43.8163,2111078
SAO JOAO DOS PATOS,MA,-6.4934,-43.7036,2111102
SAO JOSE DE RIBAMAR,MA,-2.54704,-44.0597,2111201
SAO JOSE DOS BASILIOS,MA,-5.05493,-44.5809,2111250
SAO LUIS,MA,-2.53874,-44.2825,2111300
SAO LUIS GONZAGA DO MARANHAO,MA,-4.38541,-44.6654,2111409
SAO MATEUS DO MARANHAO,MA,-4.03736,-44.4707,2111508
SAO PEDRO DA AGUA BRANCA,MA,-5.08472,-48.4291,2111532
SAO PEDRO DOS CRENTES,MA,-6.82389,-46.5319,2111573
SAO RAIMUNDO DAS MANGABEIRAS,MA,-7.02183,-45.4809,2111607
SAO RAIMUNDO DO DOCA BEZERRA,MA,-5.11053,-45.0696,2111631
SAO ROBERTO,MA,-5.0231,-45.001,2111672
SAO VICENTE FERRER,MA,-2.89487,-44.8681,2111706
SATUBINHA,MA,-4.04913,-45.2457,2111722
SENADOR ALEXANDRE COSTA,MA,-5.25096,-44.0533,2111748
SENADOR LA ROCQUE,MA,-5.4461,-47.2959,2111763
SERRANO DO MARANHAO,MA,-1.85229,-45.1207,2111789
SITIO NOVO,MA,-5.87601,-46.7033,2111805
SUCUPIRA DO NORTE,MA,-6.47839,-44.1919,2111904
SUCUPIRA DO RIACHAO,MA,-6.40858,-43.5455,2111953
TASSO FRAGOSO,MA,-8.4662,-45.7536,2112001
TIMBIRAS,MA,-4.25597,-43.932,2112100
TIMON,MA,-5.09769,-42.8329,2112209
TRIZIDELA DO VALE,MA,-4.538,-44.628,2112233
TUFILANDIA,MA,-3.67355,-45.6238,2112274
TUNTUM,MA,-5.25476,-44.6444,2112308
TURIACU,MA,-1.65893,-45.3798,2112407
TURILANDIA,MA,-2.21638,-45.3044,2112456
TUTOIA,MA,-2.76141,-42.2755,2112506
URBANO SANTOS,MA,-3.20642,-43.3878,2112605
VARGEM GRANDE,MA,-3.53639,-43.917,2112704
VIANA,MA,-3.20451,-44.9912,2112803
VILA NOVA DOS MARTIRIOS,MA,-5.18889,-48.1336,2112852
VITORIA DO MEARIM,MA,-3.45125,-44.8643,2112902
VITORINO FREIRE,MA,-4.28184,-45.2505,2113009
ZE DOCA,MA,-3.27014,-45.6553,2114007
ABADIA DOS DOURADOS,MG,-18.4831,-47.3916,3100104
ABAETE,MG,-19.1551,-45.4444,3100203
ABRE CAMPO,MG,-20.2996,-42.4743,3100302
ACAIACA,MG,-20.359,-43.1439,3100401
ACUCENA,MG,-19.0671,-42.5419,3100500
AGUA BOA,MG,-17.9914,-42.3806,3100609
AGUA COMPRIDA,MG,-20.0576,-48.1069,3100708
AGUANIL,MG,-20.9439,-45.3915,3100807
AGUAS FORMOSAS,MG,-17.0802,-40.9384,3100906
AGUAS VERMELHAS,MG,-15.7431,-41.4571,3101003
AIMORES,MG,-19.5007,-41.0746,3101102
AIURUOCA,MG,-21.9736,-44.6042,3101201
ALAGOA,MG,-22.171,-44.6413,3101300
ALBERTINA,MG,-22.2018,-46.6139,3101409
ALEM PARAIBA,MG,-21.8797,-42.7176,3101508
ALFENAS,MG,-21.4256,-45.9477,3101607
ALFREDO VASCONCELOS,MG,-21.1535,-43.7718,3101631
ALMENARA,MG,-16.1785,-40.6942,3101706
ALPERCATA,MG,-18.974,-41.97,3101805
ALPINOPOLIS,MG,-20.8631,-46.3878,3101904
ALTEROSA,MG,-21.2488,-46.1387,3102001
ALTO CAPARAO,MG,-20.431,-41.8738,3102050
ALTO JEQUITIBA,MG,-20.4208,-41.967,3153509
ALTO RIO DOCE,MG,-21.0281,-43.4067,3102100
ALVARENGA,MG,-19.4174,-41.7317,3102209
ALVINOPOLIS,MG,-20.1098,-43.0535,3102308
ALVORADA DE MINAS,MG,-18.7334,-43.3638,3102407
AMPARO DO SERRA,MG,-20.5051,-42.8009,3102506
ANDRADAS,MG,-22.0695,-46.5724,3102605
ANDRELANDIA,MG,-21.7411,-44.3117,3102803
ANGELANDIA,MG,-17.7279,-42.2641,3102852
ANTONIO CARLOS,MG,-21.321,-43.7451,3102902
ANTONIO DIAS,MG,-19.6491,-42.8732,3103009
ANTONIO PRADO DE MINAS,MG,-21.0192,-42.1109,3103108
ARACAI,MG,-19.1955,-44.2493,3103207
ARACITABA,MG,-21.3446,-43.3736,3103306
ARACUAI,MG,-16.8523,-42.0637,3103405
ARAGUARI,MG,-18.6456,-48.1934,3103504
ARANTINA,MG,-21.9102,-44.2555,3103603
ARAPONGA,MG,-20.6686,-42.5178,3103702
ARAPORA,MG,-18.4357,-49.1847,3103751
ARAPUA,MG,-19.0268,-46.1484,3103801
ARAUJOS,MG,-19.9405,-45.1671,3103900
ARAXA,MG,-19.5902,-46.9438,3104007
ARCEBURGO,MG,-21.359,-46.9401,3104106
ARCOS,MG,-20.2863,-45.5373,3104205
AREADO,MG,-21.3572,-46.1421,3104304
ARGIRITA,MG,-21.6083,-42.8292,3104403
ARICANDUVA,MG,-17.8666,-42.5533,3104452
ARINOS,MG,-15.9187,-46.1043,3104502
ASTOLFO DUTRA,MG,-21.3184,-42.8572,3104601
ATALEIA,MG,-18.0438,-41.1149,3104700
AUGUSTO DE LIMA,MG,-18.0997,-44.2655,3104809
BAEPENDI,MG,-21.957,-44.8874,3104908
BALDIM,MG,-19.2832,-43.9613,3105004
BAMBUI,MG,-20.0166,-45.9754,3105103
BANDEIRA,MG,-15.8783,-40.5622,3105202
BANDEIRA DO SUL,MG,-21.7308,-46.3833,3105301
BARAO DE COCAIS,MG,-19.9389,-43.4755,3105400
BARAO DE MONTE ALTO,MG,-21.2444,-42.2372,3105509
BARBACENA,MG,-21.2214,-43.7703,3105608
BARRA LONGA,MG,-20.2869,-43.0402,3105707
BARROSO,MG,-21.1907,-43.972,3105905
BELA VISTA DE MINAS,MG,-19.8302,-43.0922,3106002
BELMIRO BRAGA,MG,-21.944,-43.4084,3106101
BELO HORIZONTE,MG,-19.9102,-43.9266,3106200
BELO ORIENTE,MG,-19.2199,-42.4828,3106309
BELO VALE,MG,-20.4077,-44.0275,3106408
BERILO,MG,-16.9567,-42.4606,3106507
BERIZAL,MG,-15.61,-41.7432,3106655
BERTOPOLIS,MG,-17.059,-40.58,3106606
BETIM,MG,-19.9668,-44.2008,3106705
BIAS FORTES,MG,-21.602,-43.7574,3106804
BICAS,MG,-21.7232,-43.056,3106903
BIQUINHAS,MG,-18.7754,-45.4974,3107000
BOA ESPERANCA,MG,-21.0927,-45.5612,3107109
BOCAINA DE MINAS,MG,-22.1697,-44.3972,3107208
BOCAIUVA,MG,-17.1135,-43.8104,3107307
BOM DESPACHO,MG,-19.7386,-45.2622,3107406
BOM JARDIM DE MINAS,MG,-21.9479,-44.1885,3107505
BOM JESUS DA PENHA,MG,-21.0148,-46.5174,3107604
BOM JESUS DO AMPARO,MG,-19.7054,-43.4782,3107703
BOM JESUS DO GALHO,MG,-19.836,-42.3165,3107802
BOM REPOUSO,MG,-22.4675,-46.144,3107901
BOM SUCESSO,MG,-21.0329,-44.7537,3108008
BONFIM,MG,-20.3302,-44.2366,3108107
BONFINOPOLIS DE MINAS,MG,-16.568,-45.9839,3108206
BONITO DE MINAS,MG,-15.3231,-44.7543,3108255
BORDA DA MATA,MG,-22.2707,-46.1653,3108305
BOTELHOS,MG,-21.6412,-46.391,3108404
BOTUMIRIM,MG,-16.8657,-43.0086,3108503
BRAS PIRES,MG,-20.8419,-43.2406,3108701
BRASILANDIA DE MINAS,MG,-16.9999,-46.0081,3108552
BRASILIA DE MINAS,MG,-16.2104,-44.4299,3108602
BRASOPOLIS,MG,-22.4743,-45.6166,3108909
BRAUNAS,MG,-19.0562,-42.7099,3108800
BRUMADINHO,MG,-20.151,-44.2007,3109006
BUENO BRANDAO,MG,-22.4383,-46.3491,3109105
BUENOPOLIS,MG,-17.8744,-44.1775,3109204
BUGRE,MG,-19.4231,-42.2552,3109253
BURITIS,MG,-15.6218,-46.4221,3109303
BURITIZEIRO,MG,-17.3656,-44.9606,3109402
CABECEIRA GRANDE,MG,-16.0335,-47.0862,3109451
CABO VERDE,MG,-21.4699,-46.3919,3109501
CACHOEIRA DA PRATA,MG,-19.521,-44.4544,3109600
CACHOEIRA DE MINAS,MG,-22.3511,-45.7809,3109709
CACHOEIRA DE PAJEU,MG,-15.9688,-41.4948,3102704
CACHOEIRA DOURADA,MG,-18.5161,-49.5039,3109808
CAETANOPOLIS,MG,-19.2971,-44.4189,3109907
CAETE,MG,-19.8826,-43.6704,3110004
CAIANA,MG,-20.6956,-41.9292,3110103
CAJURI,MG,-20.7903,-42.7925,3110202
CALDAS,MG,-21.9183,-46.3843,3110301
CAMACHO,MG,-20.6294,-45.1593,3110400
CAMANDUCAIA,MG,-22.7515,-46.1494,3110509
CAMBUI,MG,-22.6115,-46.0572,3110608
CAMBUQUIRA,MG,-21.854,-45.2896,3110707
CAMPANARIO,MG,-18.2427,-41.7355,3110806
CAMPANHA,MG,-21.836,-45.4004,3110905
CAMPESTRE,MG,-21.7079,-46.2381,3111002
CAMPINA VERDE,MG,-19.5382,-49.4862,3111101
CAMPO AZUL,MG,-16.5028,-44.8096,3111150
CAMPO BELO,MG,-20.8932,-45.2699,3111200
CAMPO DO MEIO,MG,-21.1127,-45.8273,3111309
CAMPO FLORIDO,MG,-19.7631,-48.5716,3111408
CAMPOS ALTOS,MG,-19.6914,-46.1725,3111507
CAMPOS GERAIS,MG,-21.237,-45.7569,3111606
CANA VERDE,MG,-21.0232,-45.1801,3111903
CANAA,MG,-20.6869,-42.6167,3111705
CANAPOLIS,MG,-18.7212,-49.2035,3111804
CANDEIAS,MG,-20.7692,-45.2765,3112000
CANTAGALO,MG,-18.5248,-42.6223,3112059
CAPARAO,MG,-20.5289,-41.9061,3112109
CAPELA NOVA,MG,-20.9179,-43.622,3112208
CAPELINHA,MG,-17.6888,-42.5147,3112307
CAPETINGA,MG,-20.6163,-47.0571,3112406
CAPIM BRANCO,MG,-19.5471,-44.1304,3112505
CAPINOPOLIS,MG,-18.6862,-49.5706,3112604
CAPITAO ANDRADE,MG,-19.0748,-41.8614,3112653
CAPITAO ENEAS,MG,-16.3265,-43.7084,3112703
CAPITOLIO,MG,-20.6164,-46.0493,3112802
CAPUTIRA,MG,-20.1703,-42.2683,3112901
CARAI,MG,-17.1862,-41.7004,3113008
CARANAIBA,MG,-20.8707,-43.7417,3113107
CARANDAI,MG,-20.9566,-43.811,3113206
CARANGOLA,MG,-20.7343,-42.0313,3113305
CARATINGA,MG,-19.7868,-42.1292,3113404
CARBONITA,MG,-17.5255,-43.0137,3113503
CAREACU,MG,-22.0424,-45.696,3113602
CARLOS CHAGAS,MG,-17.6973,-40.7723,3113701
CARMESIA,MG,-19.0877,-43.1382,3113800
CARMO DA CACHOEIRA,MG,-21.4633,-45.2201,3113909
CARMO DA MATA,MG,-20.5575,-44.8735,3114006
CARMO DE MINAS,MG,-22.1204,-45.1307,3114105
CARMO DO CAJURU,MG,-20.1912,-44.7664,3114204
CARMO DO PARANAIBA,MG,-18.991,-46.3167,3114303
CARMO DO RIO CLARO,MG,-20.9736,-46.1149,3114402
CARMOPOLIS DE MINAS,MG,-20.5396,-44.6336,3114501
CARNEIRINHO,MG,-19.6987,-50.6894,3114550
CARRANCAS,MG,-21.4898,-44.6446,3114600
CARVALHOPOLIS,MG,-21.7735,-45.8421,3114709
CARVALHOS,MG,-22.0,-44.4632,3114808
CASA GRANDE,MG,-20.7925,-43.9343,3114907
CASCALHO RICO,MG,-18.5772,-47.8716,3115003
CASSIA,MG,-20.5831,-46.9201,3115102
CATAGUASES,MG,-21.3924,-42.6896,3115300
CATAS ALTAS,MG,-20.0734,-43.4061,3115359
CATAS ALTAS DA NORUEGA,MG,-20.6901,-43.4939,3115409
CATUJI,MG,-17.3018,-41.5276,3115458
CATUTI,MG,-15.3616,-42.9627,3115474
CAXAMBU,MG,-21.9753,-44.9319,3115508
CEDRO DO ABAETE,MG,-19.1458,-45.712,3115607
CENTRAL DE MINAS,MG,-18.7612,-41.3143,3115706
CENTRALINA,MG,-18.5852,-49.2014,3115805
CHACARA,MG,-21.6733,-43.215,3115904
CHALE,MG,-20.0453,-41.6897,3116001
CHAPADA DO NORTE,MG,-17.0881,-42.5392,3116100
CHAPADA GAUCHA,MG,-15.3014,-45.6116,3116159
CHIADOR,MG,-21.9996,-43.0617,3116209
CIPOTANEA,MG,-20.9026,-43.3629,3116308
CLARAVAL,MG,-20.397,-47.2768,3116407
CLARO DOS POCOES,MG,-17.082,-44.2061,3116506
CLAUDIO,MG,-20.4437,-44.7673,3116605
COIMBRA,MG,-20.8535,-42.8008,3116704
COLUNA,MG,-18.2311,-42.8352,3116803
COMENDADOR GOMES,MG,-19.6973,-49.0789,3116902
COMERCINHO,MG,-16.2963,-41.7945,3117009
CONCEICAO DA APARECIDA,MG,-21.096,-46.2049,3117108
CONCEICAO DA BARRA DE MINAS,MG,-21.1316,-44.4729,3115201
CONCEICAO DAS ALAGOAS,MG,-19.9172,-48.3839,3117306
CONCEICAO DAS PEDRAS,MG,-22.1576,-45.4562,3117207
CONCEICAO DE IPANEMA,MG,-19.9326,-41.6908,3117405
CONCEICAO DO MATO DENTRO,MG,-19.0344,-43.4221,3117504
CONCEICAO DO PARA,MG,-19.7456,-44.8945,3117603
CONCEICAO DO RIO VERDE,MG,-21.8778,-45.087,3117702
CONCEICAO DOS OUROS,MG,-22.4078,-45.7996,3117801
CONEGO MARINHO,MG,-15.2892,-44.4181,3117836
CONFINS,MG,-19.6282,-43.9931,3117876
CONGONHAL,MG,-22.1488,-46.043,3117900
CONGONHAS,MG,-20.4958,-43.851,3118007
CONGONHAS DO NORTE,MG,-18.8021,-43.6767,3118106
CONQUISTA,MG,-19.9312,-47.5492,3118205
CONSELHEIRO LAFAIETE,MG,-20.6634,-43.7846,3118304
CONSELHEIRO PENA,MG,-19.1789,-41.4736,3118403
CONSOLACAO,MG,-22.5493,-45.9255,3118502
CONTAGEM,MG,-19.9321,-44.0539,3118601
COQUEIRAL,MG,-21.1858,-45.4366,3118700
CORACAO DE JESUS,MG,-16.6841,-44.3635,3118809
CORDISBURGO,MG,-19.1224,-44.3224,3118908
CORDISLANDIA,MG,-21.7891,-45.6999,3119005
CORINTO,MG,-18.369,-44.4542,3119104
COROACI,MG,-18.6156,-42.2791,3119203
COROMANDEL,MG,-18.4734,-47.1933,3119302
CORONEL FABRICIANO,MG,-19.5179,-42.6276,3119401
CORONEL MURTA,MG,-16.6148,-42.184,3119500
CORONEL PACHECO,MG,-21.5898,-43.256,3119609
CORONEL XAVIER CHAVES,MG,-21.0277,-44.2206,3119708
CORREGO DANTA,MG,-19.8198,-45.9032,3119807
CORREGO DO BOM JESUS,MG,-22.6269,-46.0241,3119906
CORREGO FUNDO,MG,-20.4474,-45.5617,3119955
CORREGO NOVO,MG,-19.8361,-42.3988,3120003
COUTO DE MAGALHAES DE MINAS,MG,-18.0727,-43.4648,3120102
CRISOLITA,MG,-17.2381,-40.9184,3120151
CRISTAIS,MG,-20.8733,-45.5167,3120201
CRISTALIA,MG,-16.716,-42.8571,3120300
CRISTIANO OTONI,MG,-20.8324,-43.8166,3120409
CRISTINA,MG,-22.208,-45.2673,3120508
CRUCILANDIA,MG,-20.3923,-44.3334,3120607
CRUZEIRO DA FORTALEZA,MG,-18.944,-46.6669,3120706
CRUZILIA,MG,-21.84,-44.8067,3120805
CUPARAQUE,MG,-18.9648,-41.0986,3120839
CURRAL DE DENTRO,MG,-15.9327,-41.8557,3120870
CURVELO,MG,-18.7527,-44.4303,3120904
DATAS,MG,-18.4478,-43.6591,3121001
DELFIM MOREIRA,MG,-22.5036,-45.2792,3121100
DELFINOPOLIS,MG,-20.3468,-46.8456,3121209
DELTA,MG,-19.9721,-47.7841,3121258
DESCOBERTO,MG,-21.46,-42.9618,3121308
DESTERRO DE ENTRE RIOS,MG,-20.665,-44.3334,3121407
DESTERRO DO MELO,MG,-21.143,-43.5178,3121506
DIAMANTINA,MG,-18.2413,-43.6031,3121605
DIOGO DE VASCONCELOS,MG,-20.4879,-43.1953,3121704
DIONISIO,MG,-19.8433,-42.7701,3121803
DIVINESIA,MG,-20.9917,-43.0003,3121902
DIVINO,MG,-20.6134,-42.1438,3122009
DIVINO DAS LARANJEIRAS,MG,-18.7755,-41.4781,3122108
DIVINOLANDIA DE MINAS,MG,-18.8004,-42.6103,3122207
DIVINOPOLIS,MG,-20.1446,-44.8912,3122306
DIVISA ALEGRE,MG,-15.7221,-41.3463,3122355
DIVISA NOVA,MG,-21.5092,-46.1904,3122405
DIVISOPOLIS,MG,-15.7254,-40.9997,3122454
DOM BOSCO,MG,-16.652,-46.2597,3122470
DOM CAVATI,MG,-19.3735,-42.1121,3122504
DOM JOAQUIM,MG,-18.961,-43.2544,3122603
DOM SILVERIO,MG,-20.1627,-42.9627,3122702
DOM VICOSO,MG,-22.2511,-45.1643,3122801
DONA EUSEBIA,MG,-21.319,-42.807,3122900
DORES DE CAMPOS,MG,-21.1139,-44.0207,3123007
DORES DE GUANHAES,MG,-19.0516,-42.9254,3123106
DORES DO INDAIA,MG,-19.4628,-45.5927,3123205
DORES DO TURVO,MG,-20.9785,-43.1834,3123304
DORESOPOLIS,MG,-20.2868,-45.9007,3123403
DOURADOQUARA,MG,-18.4338,-47.5993,3123502
DURANDE,MG,-20.2058,-41.7977,3123528
ELOI MENDES,MG,-21.6088,-45.5691,3123601
ENGENHEIRO CALDAS,MG,-19.2065,-42.0503,3123700
ENGENHEIRO NAVARRO,MG,-17.2831,-43.947,3123809
ENTRE FOLHAS,MG,-19.6218,-42.2306,3123858
ENTRE RIOS DE MINAS,MG,-20.6706,-44.0654,3123908
ERVALIA,MG,-20.8403,-42.6544,3124005
ESMERALDAS,MG,-19.764,-44.3065,3124104
ESPERA FELIZ,MG,-20.6508,-41.9119,3124203
ESPINOSA,MG,-14.9249,-42.809,3124302
ESPIRITO SANTO DO DOURADO,MG,-22.0454,-45.9548,3124401
ESTIVA,MG,-22.4577,-46.0191,3124500
ESTRELA DALVA,MG,-21.7412,-42.4574,3124609
ESTRELA DO INDAIA,MG,-19.5169,-45.7859,3124708
ESTRELA DO SUL,MG,-18.7399,-47.6956,3124807
EUGENOPOLIS,MG,-21.1002,-42.1878,3124906
EWBANK DA CAMARA,MG,-21.5498,-43.5068,3125002
EXTREMA,MG,-22.854,-46.3178,3125101
FAMA,MG,-21.4089,-45.8286,3125200
FARIA LEMOS,MG,-20.8097,-42.0213,3125309
FELICIO DOS SANTOS,MG,-18.0755,-43.2422,3125408
FELISBURGO,MG,-16.6348,-40.7605,3125606
FELIXLANDIA,MG,-18.7507,-44.9004,3125705
FERNANDES TOURINHO,MG,-19.1541,-42.0803,3125804
FERROS,MG,-19.2343,-43.0192,3125903
FERVEDOURO,MG,-20.726,-42.279,3125952
FLORESTAL,MG,-19.888,-44.4318,3126000
FORMIGA,MG,-20.4618,-45.4268,3126109
FORMOSO,MG,-14.9446,-46.2371,3126208
FORTALEZA DE MINAS,MG,-20.8508,-46.712,3126307
FORTUNA DE MINAS,MG,-19.5578,-44.4472,3126406
FRANCISCO BADARO,MG,-16.9883,-42.3568,3126505
FRANCISCO DUMONT,MG,-17.3107,-44.2317,3126604
FRANCISCO SA,MG,-16.4827,-43.4896,3126703
FRANCISCOPOLIS,MG,-17.9578,-42.0094,3126752
FREI GASPAR,MG,-18.0709,-41.4325,3126802
FREI INOCENCIO,MG,-18.5556,-41.9121,3126901
FREI LAGONEGRO,MG,-18.1751,-42.7617,3126950
FRONTEIRA,MG,-20.2748,-49.1984,3127008
FRONTEIRA DOS VALES,MG,-16.8898,-40.923,3127057
FRUTA DE LEITE,MG,-16.1225,-42.5288,3127073
FRUTAL,MG,-20.0259,-48.9355,3127107
FUNILANDIA,MG,-19.3661,-44.061,3127206
GALILEIA,MG,-19.0005,-41.5387,3127305
GAMELEIRAS,MG,-15.0829,-43.125,3127339
GLAUCILANDIA,MG,-16.8481,-43.692,3127354
GOIABEIRA,MG,-18.9807,-41.2235,3127370
GOIANA,MG,-21.536,-43.1957,3127388
GONCALVES,MG,-22.6545,-45.8556,3127404
GONZAGA,MG,-18.8196,-42.4769,3127503
GOUVEIA,MG,-18.4519,-43.7423,3127602
GOVERNADOR VALADARES,MG,-18.8545,-41.9555,3127701
GRAO MOGOL,MG,-16.5662,-42.8923,3127800
GRUPIARA,MG,-18.5003,-47.7318,3127909
GUANHAES,MG,-18.7713,-42.9312,3128006
GUAPE,MG,-20.7631,-45.9152,3128105
GUARACIABA,MG,-20.5716,-43.0094,3128204
GUARACIAMA,MG,-17.0142,-43.6675,3128253
GUARANESIA,MG,-21.3009,-46.7964,3128303
GUARANI,MG,-21.3563,-43.0328,3128402
GUARARA,MG,-21.7304,-43.0334,3128501
GUARDA-MOR,MG,-17.7673,-47.0998,3128600
GUAXUPE,MG,-21.305,-46.7081,3128709
GUIDOVAL,MG,-21.155,-42.7887,3128808
GUIMARANIA,MG,-18.8425,-46.7901,3128907
GUIRICEMA,MG,-21.0098,-42.7207,3129004
GURINHATA,MG,-19.2143,-49.7876,3129103
HELIODORA,MG,-22.0644,-45.5453,3129202
IAPU,MG,-19.4387,-42.2147,3129301
IBERTIOGA,MG,-21.433,-43.9639,3129400
IBIA,MG,-19.4749,-46.5474,3129509
IBIAI,MG,-16.8591,-44.9046,3129608
IBIRACATU,MG,-15.6605,-44.1667,3129657
IBIRACI,MG,-20.4611,-47.1222,3129707
IBIRITE,MG,-20.0252,-44.0569,3129806
IBITIURA DE MINAS,MG,-22.0604,-46.4368,3129905
IBITURUNA,MG,-21.1541,-44.7479,3130002
ICARAI DE MINAS,MG,-16.214,-44.9034,3130051
IGARAPE,MG,-20.0707,-44.2994,3130101
IGARATINGA,MG,-19.9476,-44.7063,3130200
IGUATAMA,MG,-20.1776,-45.7111,3130309
IJACI,MG,-21.1738,-44.9233,3130408
ILICINEA,MG,-20.9402,-45.8308,3130507
IMBE DE MINAS,MG,-19.6017,-41.9695,3130556
INCONFIDENTES,MG,-22.3136,-46.3264,3130606
INDAIABIRA,MG,-15.4911,-42.2005,3130655
INDIANOPOLIS,MG,-19.0341,-47.9155,3130705
INGAI,MG,-21.4024,-44.9152,3130804
INHAPIM,MG,-19.5476,-42.1147,3130903
INHAUMA,MG,-19.4898,-44.3934,3131000
INIMUTABA,MG,-18.7271,-44.3584,3131109
IPABA,MG,-19.4158,-42.4139,3131158
IPANEMA,MG,-19.7992,-41.7164,3131208
IPATINGA,MG,-19.4703,-42.5476,3131307
IPIACU,MG,-18.6927,-49.9436,3131406
IPUIUNA,MG,-22.1013,-46.1915,3131505
IRAI DE MINAS,MG,-18.9819,-47.461,3131604
ITABIRA,MG,-19.6239,-43.2312,3131703
ITABIRINHA,MG,-18.5712,-41.234,3131802
ITABIRITO,MG,-20.2501,-43.8038,3131901
ITACAMBIRA,MG,-17.0625,-43.3069,3132008
ITACARAMBI,MG,-15.089,-44.095,3132107
ITAGUARA,MG,-20.3947,-44.4875,3132206
ITAIPE,MG,-17.4014,-41.6697,3132305
ITAJUBA,MG,-22.4225,-45.4598,3132404
ITAMARANDIBA,MG,-17.8552,-42.8561,3132503
ITAMARATI DE MINAS,MG,-21.4179,-42.813,3132602
ITAMBACURI,MG,-18.035,-41.683,3132701
ITAMBE DO MATO DENTRO,MG,-19.4158,-43.3182,3132800
ITAMOGI,MG,-21.0758,-47.046,3132909
ITAMONTE,MG,-22.2859,-44.868,3133006
ITANHANDU,MG,-22.2942,-44.9382,3133105
ITANHOMI,MG,-19.1736,-41.863,3133204
ITAOBIM,MG,-16.5571,-41.5017,3133303
ITAPAGIPE,MG,-19.9062,-49.3781,3133402
ITAPECERICA,MG,-20.4704,-45.127,3133501
ITAPEVA,MG,-22.7665,-46.2241,3133600
ITATIAIUCU,MG,-20.1983,-44.4211,3133709
ITAU DE MINAS,MG,-20.7375,-46.7525,3133758
ITAUNA,MG,-20.0818,-44.5801,3133808
ITAVERAVA,MG,-20.6769,-43.6141,3133907
ITINGA,MG,-16.61,-41.7672,3134004
ITUETA,MG,-19.3999,-41.1746,3134103
ITUIUTABA,MG,-18.9772,-49.4639,3134202
ITUMIRIM,MG,-21.3171,-44.8724,3134301
ITURAMA,MG,-19.7276,-50.1966,3134400
ITUTINGA,MG,-21.3,-44.6567,3134509
JABOTICATUBAS,MG,-19.5119,-43.7373,3134608
JACINTO,MG,-16.1428,-40.295,3134707
JACUI,MG,-21.0137,-46.7359,3134806
JACUTINGA,MG,-22.286,-46.6166,3134905
JAGUARACU,MG,-19.647,-42.7498,3135001
JAIBA,MG,-15.3432,-43.6688,3135050
JAMPRUCA,MG,-18.461,-41.809,3135076
JANAUBA,MG,-15.8022,-43.3132,3135100
JANUARIA,MG,-15.4802,-44.3639,3135209
JAPARAIBA,MG,-20.1442,-45.5015,3135308
JAPONVAR,MG,-15.9891,-44.2758,3135357
JECEABA,MG,-20.5339,-43.9894,3135407
JENIPAPO DE MINAS,MG,-17.0831,-42.2589,3135456
JEQUERI,MG,-20.4542,-42.6651,3135506
JEQUITAI,MG,-17.229,-44.4376,3135605
JEQUITIBA,MG,-19.2345,-44.0304,3135704
JEQUITINHONHA,MG,-16.4375,-41.0117,3135803
JESUANIA,MG,-21.9887,-45.2911,3135902
JOAIMA,MG,-16.6522,-41.0229,3136009
JOANESIA,MG,-19.1729,-42.6775,3136108
JOAO MONLEVADE,MG,-19.8126,-43.1735,3136207
JOAO PINHEIRO,MG,-17.7398,-46.1715,3136306
JOAQUIM FELICIO,MG,-17.758,-44.1643,3136405
JORDANIA,MG,-15.9009,-40.1841,3136504
JOSE GONCALVES DE MINAS,MG,-16.9053,-42.6014,3136520
JOSE RAYDAN,MG,-18.2195,-42.4946,3136553
JOSENOPOLIS,MG,-16.5417,-42.5151,3136579
JUATUBA,MG,-19.9448,-44.3451,3136652
JUIZ DE FORA,MG,-21.7595,-43.3398,3136702
JURAMENTO,MG,-16.8473,-43.5865,3136801
JURUAIA,MG,-21.2493,-46.5735,3136900
JUVENILIA,MG,-14.2662,-44.1597,3136959
LADAINHA,MG,-17.6279,-41.7488,3137007
LAGAMAR,MG,-18.1759,-46.8063,3137106
LAGOA DA PRATA,MG,-20.0237,-45.5401,3137205
LAGOA DOS PATOS,MG,-16.978,-44.5754,3137304
LAGOA DOURADA,MG,-20.9139,-44.0797,3137403
LAGOA FORMOSA,MG,-18.7715,-46.4012,3137502
LAGOA GRANDE,MG,-17.8323,-46.5165,3137536
LAGOA SANTA,MG,-19.6397,-43.8932,3137601
LAJINHA,MG,-20.1539,-41.6228,3137700
LAMBARI,MG,-21.9671,-45.3498,3137809
LAMIM,MG,-20.79,-43.4706,3137908
LARANJAL,MG,-21.3715,-42.4732,3138005
LASSANCE,MG,-17.887,-44.5735,3138104
LAVRAS,MG,-21.248,-45.0009,3138203
LEANDRO FERREIRA,MG,-19.7193,-45.0279,3138302
LEME DO PRADO,MG,-17.0793,-42.6936,3138351
LEOPOLDINA,MG,-21.5296,-42.6421,3138401
LIBERDADE,MG,-22.0275,-44.3208,3138500
LIMA DUARTE,MG,-21.8386,-43.7934,3138609
LIMEIRA DO OESTE,MG,-19.5512,-50.5815,3138625
LONTRA,MG,-15.9013,-44.306,3138658
LUISBURGO,MG,-20.4468,-42.0976,3138674
LUISLANDIA,MG,-16.1095,-44.5886,3138682
LUMINARIAS,MG,-21.5145,-44.9034,3138708
LUZ,MG,-19.7911,-45.6794,3138807
MACHACALIS,MG,-17.0723,-40.7245,3138906
MACHADO,MG,-21.6778,-45.9219,3139003
MADRE DE DEUS DE MINAS,MG,-21.483,-44.3287,3139102
MALACACHETA,MG,-17.8456,-42.0769,3139201
MAMONAS,MG,-15.0479,-42.9469,3139250
MANGA,MG,-14.7529,-43.9391,3139300
MANHUACU,MG,-20.2572,-42.028,3139409
MANHUMIRIM,MG,-20.3591,-41.9589,3139508
MANTENA,MG,-18.7761,-40.9874,3139607
MAR DE ESPANHA,MG,-21.8707,-43.0062,3139805
MARAVILHAS,MG,-19.5076,-44.6779,3139706
MARIA DA FE,MG,-22.3044,-45.3773,3139904
MARIANA,MG,-20.3765,-43.414,3140001
MARILAC,MG,-18.5079,-42.0822,3140100
MARIO CAMPOS,MG,-20.0582,-44.1883,3140159
MARIPA DE MINAS,MG,-21.6979,-42.9546,3140209
MARLIERIA,MG,-19.7096,-42.7327,3140308
MARMELOPOLIS,MG,-22.447,-45.1645,3140407
MARTINHO CAMPOS,MG,-19.3306,-45.2434,3140506
MARTINS SOARES,MG,-20.2546,-41.8786,3140530
MATA VERDE,MG,-15.6869,-40.7366,3140555
MATERLANDIA,MG,-18.4699,-43.0579,3140605
MATEUS LEME,MG,-19.9794,-44.4318,3140704
MATHIAS LOBATO,MG,-18.59,-41.9166,3171501
MATIAS BARBOSA,MG,-21.869,-43.3135,3140803
MATIAS CARDOSO,MG,-14.8563,-43.9146,3140852
MATIPO,MG,-20.2873,-42.3401,3140902
MATO VERDE,MG,-15.3944,-42.86,3141009
MATOZINHOS,MG,-19.5543,-44.0868,3141108
MATUTINA,MG,-19.2179,-45.9664,3141207
MEDEIROS,MG,-19.9865,-46.2181,3141306
MEDINA,MG,-16.2245,-41.4728,3141405
MENDES PIMENTEL,MG,-18.6631,-41.4052,3141504
MERCES,MG,-21.1976,-43.3337,3141603
MESQUITA,MG,-19.224,-42.6079,3141702
MINAS NOVAS,MG,-17.2156,-42.5884,3141801
MINDURI,MG,-21.6797,-44.6051,3141900
MIRABELA,MG,-16.256,-44.1602,3142007
MIRADOURO,MG,-20.8899,-42.3458,3142106
MIRAI,MG,-21.2021,-42.6122,3142205
MIRAVANIA,MG,-14.7348,-44.4092,3142254
MOEDA,MG,-20.3399,-44.0509,3142304
MOEMA,MG,-19.8387,-45.4127,3142403
MONJOLOS,MG,-18.3245,-44.118,3142502
MONSENHOR PAULO,MG,-21.7579,-45.5391,3142601
MONTALVANIA,MG,-14.4197,-44.3719,3142700
MONTE ALEGRE DE MINAS,MG,-18.869,-48.881,3142809
MONTE AZUL,MG,-15.1514,-42.8718,3142908
MONTE BELO,MG,-21.3271,-46.3635,3143005
MONTE CARMELO,MG,-18.7302,-47.4912,3143104
MONTE FORMOSO,MG,-16.8691,-41.2473,3143153
MONTE SANTO DE MINAS,MG,-21.1873,-46.9753,3143203
MONTE SIAO,MG,-22.4335,-46.573,3143401
MONTES CLAROS,MG,-16.7282,-43.8578,3143302
MONTEZUMA,MG,-15.1702,-42.4941,3143450
MORADA NOVA DE MINAS,MG,-18.5998,-45.3584,3143500
MORRO DA GARCA,MG,-18.5356,-44.601,3143609
MORRO DO PILAR,MG,-19.2236,-43.3795,3143708
MUNHOZ,MG,-22.6092,-46.362,3143807
MURIAE,MG,-21.13,-42.3693,3143906
MUTUM,MG,-19.8121,-41.4407,3144003
MUZAMBINHO,MG,-21.3692,-46.5213,3144102
NACIP RAYDAN,MG,-18.4544,-42.2481,3144201
NANUQUE,MG,-17.8481,-40.3533,3144300
NAQUE,MG,-19.2291,-42.3312,3144359
NATALANDIA,MG,-16.5021,-46.4874,3144375
NATERCIA,MG,-22.1158,-45.5123,3144409
NAZARENO,MG,-21.2168,-44.6138,3144508
NEPOMUCENO,MG,-21.2324,-45.235,3144607
NINHEIRA,MG,-15.3148,-41.7564,3144656
NOVA BELEM,MG,-18.4925,-41.1107,3144672
NOVA ERA,MG,-19.7577,-43.0333,3144706
NOVA LIMA,MG,-19.9758,-43.8509,3144805
NOVA MODICA,MG,-18.4417,-41.4984,3144904
NOVA PONTE,MG,-19.1461,-47.6779,3145000
NOVA PORTEIRINHA,MG,-15.7993,-43.2941,3145059
NOVA RESENDE,MG,-21.1286,-46.4157,3145109
NOVA SERRANA,MG,-19.8713,-44.9847,3145208
NOVA UNIAO,MG,-19.6876,-43.583,3136603
NOVO CRUZEIRO,MG,-17.4654,-41.8826,3145307
NOVO ORIENTE DE MINAS,MG,-17.4089,-41.2194,3145356
NOVORIZONTE,MG,-16.0162,-42.4044,3145372
OLARIA,MG,-21.8598,-43.9356,3145406
OLHOS-D AGUA,MG,-17.3982,-43.5719,3145455
OLIMPIO NORONHA,MG,-22.0685,-45.2657,3145505
OLIVEIRA,MG,-20.6982,-44.829,3145604
OLIVEIRA FORTES,MG,-21.3401,-43.4499,3145703
ONCA DE PITANGUI,MG,-19.7276,-44.8058,3145802
ORATORIOS,MG,-20.4298,-42.7977,3145851
ORIZANIA,MG,-20.5142,-42.1991,3145877
OURO BRANCO,MG,-20.5263,-43.6962,3145901
OURO FINO,MG,-22.2779,-46.3716,3146008
OURO PRETO,MG,-20.3796,-43.512,3146107
OURO VERDE DE MINAS,MG,-18.0719,-41.2734,3146206
PADRE CARVALHO,MG,-16.3646,-42.5088,3146255
PADRE PARAISO,MG,-17.0758,-41.4821,3146305
PAI PEDRO,MG,-15.5271,-43.07,3146552
PAINEIRAS,MG,-18.8993,-45.5321,3146404
PAINS,MG,-20.3705,-45.6627,3146503
PAIVA,MG,-21.2913,-43.4088,3146602
PALMA,MG,-21.3748,-42.3123,3146701
PALMOPOLIS,MG,-16.7364,-40.4296,3146750
PAPAGAIOS,MG,-19.4419,-44.7468,3146909
PARA DE MINAS,MG,-19.8534,-44.6114,3147105
PARACATU,MG,-17.2252,-46.8711,3147006
PARAGUACU,MG,-21.5465,-45.7374,3147204
PARAISOPOLIS,MG,-22.5539,-45.7803,3147303
PARAOPEBA,MG,-19.2732,-44.4044,3147402
PASSA QUATRO,MG,-22.3871,-44.9709,3147600
PASSA TEMPO,MG,-20.6539,-44.4926,3147709
PASSA-VINTE,MG,-22.2097,-44.2344,3147808
PASSABEM,MG,-19.3509,-43.1383,3147501
PASSOS,MG,-20.7193,-46.609,3147907
PATIS,MG,-16.0773,-44.0787,3147956
PATOS DE MINAS,MG,-18.5699,-46.5013,3148004
PATROCINIO,MG,-18.9379,-46.9934,3148103
PATROCINIO DO MURIAE,MG,-21.1544,-42.2125,3148202
PAULA CANDIDO,MG,-20.8754,-42.9752,3148301
PAULISTAS,MG,-18.4276,-42.8628,3148400
PAVAO,MG,-17.4267,-41.0035,3148509
PECANHA,MG,-18.5441,-42.5583,3148608
PEDRA AZUL,MG,-16.0086,-41.2909,3148707
PEDRA BONITA,MG,-20.5219,-42.3304,3148756
PEDRA DO ANTA,MG,-20.5968,-42.7123,3148806
PEDRA DO INDAIA,MG,-20.2563,-45.2107,3148905
PEDRA DOURADA,MG,-20.8266,-42.1515,3149002
PEDRALVA,MG,-22.2386,-45.4654,3149101
PEDRAS DE MARIA DA CRUZ,MG,-15.6032,-44.391,3149150
PEDRINOPOLIS,MG,-19.2241,-47.4579,3149200
PEDRO LEOPOLDO,MG,-19.6308,-44.0383,3149309
PEDRO TEIXEIRA,MG,-21.7076,-43.743,3149408
PEQUERI,MG,-21.8341,-43.1145,3149507
PEQUI,MG,-19.6284,-44.6604,3149606
PERDIGAO,MG,-19.9411,-45.078,3149705
PERDIZES,MG,-19.3434,-47.2963,3149804
PERDOES,MG,-21.0932,-45.0896,3149903
PERIQUITO,MG,-19.1573,-42.2333,3149952
PESCADOR,MG,-18.357,-41.6006,3150000
PIAU,MG,-21.5096,-43.313,3150109
PIEDADE DE CARATINGA,MG,-19.7593,-42.0756,3150158
PIEDADE DE PONTE NOVA,MG,-20.2438,-42.7379,3150208
PIEDADE DO RIO GRANDE,MG,-21.469,-44.1938,3150307
PIEDADE DOS GERAIS,MG,-20.4715,-44.2243,3150406
PIMENTA,MG,-20.4827,-45.8049,3150505
PINGO-D AGUA,MG,-19.7287,-42.4095,3150539
PINTOPOLIS,MG,-16.0572,-45.1402,3150570
PIRACEMA,MG,-20.5089,-44.4783,3150604
PIRAJUBA,MG,-19.9092,-48.7027,3150703
PIRANGA,MG,-20.6834,-43.2967,3150802
PIRANGUCU,MG,-22.5249,-45.4945,3150901
PIRANGUINHO,MG,-22.395,-45.5324,3151008
PIRAPETINGA,MG,-21.6554,-42.3434,3151107
PIRAPORA,MG,-17.3392,-44.934,3151206
PIRAUBA,MG,-21.2825,-43.0172,3151305
PITANGUI,MG,-19.6741,-44.8964,3151404
PIUMHI,MG,-20.4762,-45.9589,3151503
PLANURA,MG,-20.1376,-48.7,3151602
POCO FUNDO,MG,-21.78,-45.9658,3151701
POCOS DE CALDAS,MG,-21.78,-46.5692,3151800
POCRANE,MG,-19.6208,-41.6334,3151909
POMPEU,MG,-19.2257,-45.0141,3152006
PONTE NOVA,MG,-20.4111,-42.8978,3152105
PONTO CHIQUE,MG,-16.6282,-45.0588,3152131
PONTO DOS VOLANTES,MG,-16.7473,-41.5025,3152170
PORTEIRINHA,MG,-15.7404,-43.0281,3152204
PORTO FIRME,MG,-20.6642,-43.0834,3152303
POTE,MG,-17.8077,-41.786,3152402
POUSO ALEGRE,MG,-22.2266,-45.9389,3152501
POUSO ALTO,MG,-22.1964,-44.9748,3152600
PRADOS,MG,-21.0597,-44.0778,3152709
PRATA,MG,-19.3086,-48.9276,3152808
PRATAPOLIS,MG,-20.7411,-46.8624,3152907
PRATINHA,MG,-19.739,-46.3755,3153004
PRESIDENTE BERNARDES,MG,-20.7656,-43.1895,3153103
PRESIDENTE JUSCELINO,MG,-18.6401,-44.06,3153202
PRESIDENTE KUBITSCHEK,MG,-18.6193,-43.5628,3153301
PRESIDENTE OLEGARIO,MG,-18.4096,-46.4165,3153400
PRUDENTE DE MORAIS,MG,-19.4742,-44.1591,3153608
QUARTEL GERAL,MG,-19.2703,-45.5569,3153707
QUELUZITO,MG,-20.7416,-43.8851,3153806
RAPOSOS,MG,-19.9636,-43.8079,3153905
RAUL SOARES,MG,-20.1061,-42.4502,3154002
RECREIO,MG,-21.5289,-42.4676,3154101
REDUTO,MG,-20.2401,-41.9848,3154150
RESENDE COSTA,MG,-20.9171,-44.2407,3154200
RESPLENDOR,MG,-19.3194,-41.2462,3154309
RESSAQUINHA,MG,-21.0642,-43.7598,3154408
RIACHINHO,MG,-16.2258,-45.9888,3154457
RIACHO DOS MACHADOS,MG,-16.0091,-43.0488,3154507
RIBEIRAO DAS NEVES,MG,-19.7621,-44.0844,3154606
RIBEIRAO VERMELHO,MG,-21.1879,-45.0637,3154705
RIO ACIMA,MG,-20.0876,-43.7878,3154804
RIO CASCA,MG,-20.2285,-42.6462,3154903
RIO DO PRADO,MG,-16.6056,-40.5714,3155108
RIO DOCE,MG,-20.2412,-42.8995,3155009
RIO ESPERA,MG,-20.855,-43.4721,3155207
RIO MANSO,MG,-20.2666,-44.3069,3155306
RIO NOVO,MG,-21.4649,-43.1168,3155405
RIO PARANAIBA,MG,-19.1861,-46.2455,3155504
RIO PARDO DE MINAS,MG,-15.616,-42.5405,3155603
RIO PIRACICABA,MG,-19.9284,-43.1829,3155702
RIO POMBA,MG,-21.2712,-43.1696,3155801
RIO PRETO,MG,-22.0861,-43.8293,3155900
RIO VERMELHO,MG,-18.2922,-43.0018,3156007
RITAPOLIS,MG,-21.0276,-44.3204,3156106
ROCHEDO DE MINAS,MG,-21.6284,-43.0165,3156205
RODEIRO,MG,-21.2035,-42.8586,3156304
ROMARIA,MG,-18.8838,-47.5782,3156403
ROSARIO DA LIMEIRA,MG,-20.9812,-42.5112,3156452
RUBELITA,MG,-16.4053,-42.261,3156502
RUBIM,MG,-16.3775,-40.5397,3156601
SABARA,MG,-19.884,-43.8263,3156700
SABINOPOLIS,MG,-18.6653,-43.0752,3156809
SACRAMENTO,MG,-19.8622,-47.4508,3156908
SALINAS,MG,-16.1753,-42.2964,3157005
SALTO DA DIVISA,MG,-16.0063,-39.9391,3157104
SANTA BARBARA,MG,-19.9604,-43.4101,3157203
SANTA BARBARA DO LESTE,MG,-19.9753,-42.1457,3157252
SANTA BARBARA DO MONTE VERDE,MG,-21.9592,-43.7027,3157278
SANTA BARBARA DO TUGURIO,MG,-21.2431,-43.5607,3157302
SANTA CRUZ DE MINAS,MG,-21.1241,-44.2202,3157336
SANTA CRUZ DE SALINAS,MG,-16.0967,-41.7418,3157377
SANTA CRUZ DO ESCALVADO,MG,-20.2372,-42.8169,3157401
SANTA EFIGENIA DE MINAS,MG,-18.8235,-42.4388,3157500
SANTA FE DE MINAS,MG,-16.6859,-45.4102,3157609
SANTA HELENA DE MINAS,MG,-16.9707,-40.6727,3157658
SANTA JULIANA,MG,-19.3108,-47.5322,3157708
SANTA LUZIA,MG,-19.7548,-43.8497,3157807
SANTA MARGARIDA,MG,-20.3839,-42.2519,3157906
SANTA MARIA DE ITABIRA,MG,-19.4431,-43.1064,3158003
SANTA MARIA DO SALTO,MG,-16.2479,-40.1512,3158102
SANTA MARIA DO SUACUI,MG,-18.1896,-42.4139,3158201
SANTA RITA DE CALDAS,MG,-22.0292,-46.3385,3159209
SANTA RITA DE IBITIPOCA,MG,-21.5658,-43.9163,3159407
SANTA RITA DE JACUTINGA,MG,-22.1474,-44.0977,3159308
SANTA RITA DE MINAS,MG,-19.876,-42.1363,3159357
SANTA RITA DO ITUETO,MG,-19.3576,-41.3821,3159506
SANTA RITA DO SAPUCAI,MG,-22.2461,-45.7034,3159605
SANTA ROSA DA SERRA,MG,-19.5186,-45.9611,3159704
SANTA VITORIA,MG,-18.8414,-50.1208,3159803
SANTANA DA VARGEM,MG,-21.2449,-45.5005,3158300
SANTANA DE CATAGUASES,MG,-21.2893,-42.5524,3158409
SANTANA DE PIRAPAMA,MG,-18.9962,-44.0409,3158508
SANTANA DO DESERTO,MG,-21.9512,-43.1583,3158607
SANTANA DO GARAMBEU,MG,-21.5983,-44.105,3158706
SANTANA DO JACARE,MG,-20.9007,-45.1285,3158805
SANTANA DO MANHUACU,MG,-20.1031,-41.9278,3158904
SANTANA DO PARAISO,MG,-19.3661,-42.5446,3158953
SANTANA DO RIACHO,MG,-19.1662,-43.722,3159001
SANTANA DOS MONTES,MG,-20.7868,-43.6949,3159100
SANTO ANTONIO DO AMPARO,MG,-20.943,-44.9176,3159902
SANTO ANTONIO DO AVENTUREIRO,MG,-21.7606,-42.8115,3160009
SANTO ANTONIO DO GRAMA,MG,-20.3185,-42.6047,3160108
SANTO ANTONIO DO ITAMBE,MG,-18.4609,-43.3006,3160207
SANTO ANTONIO DO JACINTO,MG,-16.5332,-40.1817,3160306
SANTO ANTONIO DO MONTE,MG,-20.085,-45.2947,3160405
SANTO ANTONIO DO RETIRO,MG,-15.3393,-42.6171,3160454
SANTO ANTONIO DO RIO ABAIXO,MG,-19.2374,-43.2604,3160504
SANTO HIPOLITO,MG,-18.2968,-44.2229,3160603
SANTOS DUMONT,MG,-21.4634,-43.5499,3160702
SAO BENTO ABADE,MG,-21.5839,-45.0699,3160801
SAO BRAS DO SUACUI,MG,-20.6242,-43.9515,3160900
SAO DOMINGOS DAS DORES,MG,-19.5246,-42.0106,3160959
SAO DOMINGOS DO PRATA,MG,-19.8678,-42.971,3161007
SAO FELIX DE MINAS,MG,-18.5959,-41.4889,3161056
SAO FRANCISCO,MG,-15.9514,-44.8593,3161106
SAO FRANCISCO DE PAULA,MG,-20.7036,-44.9838,3161205
SAO FRANCISCO DE SALES,MG,-19.8611,-49.7727,3161304
SAO FRANCISCO DO GLORIA,MG,-20.7923,-42.2673,3161403
SAO GERALDO,MG,-20.9252,-42.8364,3161502
SAO GERALDO DA PIEDADE,MG,-18.8411,-42.2867,3161601
SAO GERALDO DO BAIXIO,MG,-18.9097,-41.363,3161650
SAO GONCALO DO ABAETE,MG,-18.3315,-45.8265,3161700
SAO GONCALO DO PARA,MG,-19.9822,-44.8593,3161809
SAO GONCALO DO RIO ABAIXO,MG,-19.8221,-43.366,3161908
SAO GONCALO DO RIO PRETO,MG,-18.0025,-43.3854,3125507
SAO GONCALO DO SAPUCAI,MG,-21.8932,-45.5893,3162005
SAO GOTARDO,MG,-19.3087,-46.0465,3162104
SAO JOAO BATISTA DO GLORIA,MG,-20.635,-46.508,3162203
SAO JOAO DA LAGOA,MG,-16.8455,-44.3507,3162252
SAO JOAO DA MATA,MG,-21.928,-45.9297,3162302
SAO JOAO DA PONTE,MG,-15.9271,-44.0096,3162401
SAO JOAO DAS MISSOES,MG,-14.8859,-44.0922,3162450
SAO JOAO DEL REI,MG,-21.1311,-44.2526,3162500
SAO JOAO DO MANHUACU,MG,-20.3933,-42.1533,3162559
SAO JOAO DO MANTENINHA,MG,-18.723,-41.1628,3162575
SAO JOAO DO ORIENTE,MG,-19.3384,-42.1575,3162609
SAO JOAO DO PACUI,MG,-16.5373,-44.5134,3162658
SAO JOAO DO PARAISO,MG,-15.3168,-42.0213,3162708
SAO JOAO EVANGELISTA,MG,-18.548,-42.7655,3162807
SAO JOAO NEPOMUCENO,MG,-21.5381,-43.0069,3162906
SAO JOAQUIM DE BICAS,MG,-20.048,-44.2749,3162922
SAO JOSE DA BARRA,MG,-20.7178,-46.313,3162948
SAO JOSE DA LAPA,MG,-19.6971,-43.9586,3162955
SAO JOSE DA SAFIRA,MG,-18.3243,-42.1431,3163003
SAO JOSE DA VARGINHA,MG,-19.7006,-44.556,3163102
SAO JOSE DO ALEGRE,MG,-22.3243,-45.5258,3163201
SAO JOSE DO DIVINO,MG,-18.4793,-41.3907,3163300
SAO JOSE DO GOIABAL,MG,-19.9214,-42.7035,3163409
SAO JOSE DO JACURI,MG,-18.281,-42.6729,3163508
SAO JOSE DO MANTIMENTO,MG,-20.0058,-41.7486,3163607
SAO LOURENCO,MG,-22.1166,-45.0506,3163706
SAO MIGUEL DO ANTA,MG,-20.7067,-42.7174,3163805
SAO PEDRO DA UNIAO,MG,-21.131,-46.6123,3163904
SAO PEDRO DO SUACUI,MG,-18.3609,-42.5981,3164100
SAO PEDRO DOS FERROS,MG,-20.1732,-42.5251,3164001
SAO ROMAO,MG,-16.3641,-45.0749,3164209
SAO ROQUE DE MINAS,MG,-20.249,-46.3639,3164308
SAO SEBASTIAO DA BELA VISTA,MG,-22.1583,-45.7546,3164407
SAO SEBASTIAO DA VARGEM ALEGRE,MG,-19.7477,-43.3679,3164431
SAO SEBASTIAO DO ANTA,MG,-19.5064,-41.985,3164472
SAO SEBASTIAO DO MARANHAO,MG,-18.0873,-42.5659,3164506
SAO SEBASTIAO DO OESTE,MG,-20.2758,-45.0063,3164605
SAO SEBASTIAO DO PARAISO,MG,-20.9167,-46.9837,3164704
SAO SEBASTIAO DO RIO PRETO,MG,-19.2959,-43.1757,3164803
SAO SEBASTIAO DO RIO VERDE,MG,-22.2183,-44.9761,3164902
SAO THOME DAS LETRAS,MG,-21.7218,-44.9849,3165206
SAO TIAGO,MG,-20.9075,-44.5098,3165008
SAO TOMAS DE AQUINO,MG,-20.7791,-47.0962,3165107
SAO VICENTE DE MINAS,MG,-21.7042,-44.4431,3165305
SAPUCAI-MIRIM,MG,-22.7409,-45.738,3165404
SARDOA,MG,-18.7828,-42.3629,3165503
SARZEDO,MG,-20.0367,-44.1446,3165537
SEM-PEIXE,MG,-20.1008,-42.8483,3165560
SENADOR AMARAL,MG,-22.5869,-46.1763,3165578
SENADOR CORTES,MG,-21.7986,-42.9424,3165602
SENADOR FIRMINO,MG,-20.9158,-43.0904,3165701
SENADOR JOSE BENTO,MG,-22.1633,-46.1792,3165800
SENADOR MODESTINO GONCALVES,MG,-17.9465,-43.2172,3165909
SENHORA DE OLIVEIRA,MG,-20.7972,-43.3394,3166006
SENHORA DO PORTO,MG,-18.8909,-43.0799,3166105
SENHORA DOS REMEDIOS,MG,-21.0351,-43.5812,3166204
SERICITA,MG,-20.4748,-42.4828,3166303
SERITINGA,MG,-21.9134,-44.518,3166402
SERRA AZUL DE MINAS,MG,-18.3602,-43.1675,3166501
SERRA DA SAUDADE,MG,-19.4447,-45.795,3166600
SERRA DO SALITRE,MG,-19.1083,-46.6961,3166808
SERRA DOS AIMORES,MG,-17.7872,-40.2453,3166709
SERRANIA,MG,-21.5441,-46.0417,3166907
SERRANOPOLIS DE MINAS,MG,-15.8176,-42.8732,3166956
SERRANOS,MG,-21.8857,-44.5125,3167004
SERRO,MG,-18.5991,-43.3744,3167103
SETE LAGOAS,MG,-19.4569,-44.2413,3167202
SETUBINHA,MG,-17.6002,-42.1587,3165552
SILVEIRANIA,MG,-21.1615,-43.2128,3167301
SILVIANOPOLIS,MG,-22.0274,-45.8385,3167400
SIMAO PEREIRA,MG,-21.964,-43.3088,3167509
SIMONESIA,MG,-20.1341,-42.0091,3167608
SOBRALIA,MG,-19.2345,-42.0998,3167707
SOLEDADE DE MINAS,MG,-22.0554,-45.0464,3167806
TABULEIRO,MG,-21.3632,-43.2381,3167905
TAIOBEIRAS,MG,-15.8106,-42.2259,3168002
TAPARUBA,MG,-19.7621,-41.608,3168051
TAPIRA,MG,-19.9166,-46.8264,3168101
TAPIRAI,MG,-19.8936,-46.0221,3168200
TAQUARACU DE MINAS,MG,-19.6652,-43.6922,3168309
TARUMIRIM,MG,-19.2835,-42.0097,3168408
TEIXEIRAS,MG,-20.6561,-42.8564,3168507
TEOFILO OTONI,MG,-17.8595,-41.5087,3168606
TIMOTEO,MG,-19.5811,-42.6471,3168705
TIRADENTES,MG,-21.1102,-44.1744,3168804
TIROS,MG,-19.0037,-45.9626,3168903
TOCANTINS,MG,-21.1774,-43.0127,3169000
TOCOS DO MOJI,MG,-22.3698,-46.0971,3169059
TOLEDO,MG,-22.7421,-46.3728,3169109
TOMBOS,MG,-20.9086,-42.0228,3169208
TRES CORACOES,MG,-21.6921,-45.2511,3169307
TRES MARIAS,MG,-18.2048,-45.2473,3169356
TRES PONTAS,MG,-21.3694,-45.5109,3169406
TUMIRITINGA,MG,-18.9844,-41.6527,3169505
TUPACIGUARA,MG,-18.5866,-48.6985,3169604
TURMALINA,MG,-17.2828,-42.7285,3169703
TURVOLANDIA,MG,-21.8733,-45.7859,3169802
UBA,MG,-21.1204,-42.9359,3169901
UBAI,MG,-16.2885,-44.7783,3170008
UBAPORANGA,MG,-19.6351,-42.1059,3170057
UBERABA,MG,-19.7472,-47.9381,3170107
UBERLANDIA,MG,-18.9141,-48.2749,3170206
UMBURATIBA,MG,-17.2548,-40.5779,3170305
UNAI,MG,-16.3592,-46.9022,3170404
UNIAO DE MINAS,MG,-19.5299,-50.338,3170438
URUANA DE MINAS,MG,-16.0634,-46.2443,3170479
URUCANIA,MG,-20.3521,-42.737,3170503
URUCUIA,MG,-16.1244,-45.7352,3170529
VARGEM ALEGRE,MG,-19.5988,-42.2949,3170578
VARGEM BONITA,MG,-20.3333,-46.3688,3170602
VARGEM GRANDE DO RIO PARDO,MG,-15.3987,-42.3085,3170651
VARGINHA,MG,-21.5556,-45.4364,3170701
VARJAO DE MINAS,MG,-18.3741,-46.0313,3170750
VARZEA DA PALMA,MG,-17.5944,-44.7226,3170800
VARZELANDIA,MG,-15.6992,-44.0278,3170909
VAZANTE,MG,-17.9827,-46.9088,3171006
VERDELANDIA,MG,-15.5845,-43.6121,3171030
VEREDINHA,MG,-17.3974,-42.7307,3171071
VERISSIMO,MG,-19.6657,-48.3118,3171105
VERMELHO NOVO,MG,-20.0406,-42.2688,3171154
VESPASIANO,MG,-19.6883,-43.9239,3171204
VICOSA,MG,-20.7559,-42.8742,3171303
VIEIRAS,MG,-20.867,-42.2401,3171402
VIRGEM DA LAPA,MG,-16.807,-42.3431,3171600
VIRGINIA,MG,-22.3264,-45.0965,3171709
VIRGINOPOLIS,MG,-18.8154,-42.7015,3171808
VIRGOLANDIA,MG,-18.4738,-42.3067,3171907
VISCONDE DO RIO BRANCO,MG,-21.0127,-42.8361,3172004
VOLTA GRANDE,MG,-21.7671,-42.5375,3172103
WENCESLAU BRAZ,MG,-22.5368,-45.3626,3172202
AGUA CLARA,MS,-20.4452,-52.879,5000203
ALCINOPOLIS,MS,-18.3255,-53.7042,5000252
AMAMBAI,MS,-23.1058,-55.2253,5000609
ANASTACIO,MS,-20.4823,-55.8104,5000708
ANAURILANDIA,MS,-22.1852,-52.7191,5000807
ANGELICA,MS,-22.1527,-53.7708,5000856
ANTONIO JOAO,MS,-22.1927,-55.9517,5000906
APARECIDA DO TABOADO,MS,-20.0873,-51.0961,5001003
AQUIDAUANA,MS,-20.4666,-55.7868,5001102
ARAL MOREIRA,MS,-22.9385,-55.6334,5001243
BANDEIRANTES,MS,-19.9275,-54.3585,5001508
BATAGUASSU,MS,-21.7159,-52.4221,5001904
BATAYPORA,MS,-22.2944,-53.2705,5002001
BELA VISTA,MS,-22.1073,-56.5263,5002100
BODOQUENA,MS,-20.537,-56.7127,5002159
BONITO,MS,-21.1261,-56.4836,5002209
BRASILANDIA,MS,-21.2544,-52.0365,5002308
CAARAPO,MS,-22.6368,-54.8209,5002407
CAMAPUA,MS,-19.5347,-54.0431,5002605
CAMPO GRANDE,MS,-20.4486,-54.6295,5002704
CARACOL,MS,-22.011,-57.0277,5002803
CASSILANDIA,MS,-19.1179,-51.7313,5002902
CHAPADAO DO SUL,MS,-18.788,-52.6263,5002951
CORGUINHO,MS,-19.8243,-54.8281,5003108
CORONEL SAPUCAIA,MS,-23.2724,-55.5278,5003157
CORUMBA,MS,-19.0077,-57.651,5003207
COSTA RICA,MS,-18.5432,-53.1287,5003256
COXIM,MS,-18.5013,-54.751,5003306
DEODAPOLIS,MS,-22.2763,-54.1682,5003454
DOIS IRMAOS DO BURITI,MS,-20.6848,-55.2915,5003488
DOURADINA,MS,-22.0405,-54.6158,5003504
DOURADOS,MS,-22.2231,-54.812,5003702
ELDORADO,MS,-23.7868,-54.2838,5003751
FATIMA DO SUL,MS,-22.3789,-54.5131,5003801
FIGUEIRAO,MS,-18.6782,-53.638,5003900
GLORIA DE DOURADOS,MS,-22.4136,-54.2335,5004007
GUIA LOPES DA LAGUNA,MS,-21.4583,-56.1117,5004106
IGUATEMI,MS,-23.6736,-54.5637,5004304
INOCENCIA,MS,-19.7277,-51.9281,5004403
ITAPORA,MS,-22.08,-54.7934,5004502
ITAQUIRAI,MS,-23.4779,-54.187,5004601
IVINHEMA,MS,-22.3046,-53.8184,5004700
JAPORA,MS,-23.8903,-54.4059,5004809
JARAGUARI,MS,-20.1386,-54.3996,5004908
JARDIM,MS,-21.4799,-56.1489,5005004
JATEI,MS,-22.4806,-54.3079,5005103
JUTI,MS,-22.8596,-54.6061,5005152
LADARIO,MS,-19.0089,-57.5973,5005202
LAGUNA CARAPA,MS,-22.5448,-55.1502,5005251
MARACAJU,MS,-21.6105,-55.1678,5005400
MIRANDA,MS,-20.2355,-56.3746,5005608
MUNDO NOVO,MS,-23.9355,-54.281,5005681
NAVIRAI,MS,-23.0618,-54.1995,5005707
NIOAQUE,MS,-21.1419,-55.8296,5005806
NOVA ALVORADA DO SUL,MS,-21.4657,-54.3825,5006002
NOVA ANDRADINA,MS,-22.238,-53.3437,5006200
NOVO HORIZONTE DO SUL,MS,-22.6693,-53.8601,5006259
PARAISO DAS AGUAS,MS,-19.0216,-53.0116,5006275
PARANAIBA,MS,-19.6746,-51.1909,5006309
PARANHOS,MS,-23.8911,-55.429,5006358
PEDRO GOMES,MS,-18.0996,-54.5507,5006408
PONTA PORA,MS,-22.5296,-55.7203,5006606
PORTO MURTINHO,MS,-21.6981,-57.8836,5006903
RIBAS DO RIO PARDO,MS,-20.4445,-53.7588,5007109
RIO BRILHANTE,MS,-21.8033,-54.5427,5007208
RIO NEGRO,MS,-19.447,-54.9859,5007307
RIO VERDE DE MATO GROSSO,MS,-18.9249,-54.8434,5007406
ROCHEDO,MS,-19.9565,-54.8848,5007505
SANTA RITA DO PARDO,MS,-21.3016,-52.8333,5007554
SAO GABRIEL DO OESTE,MS,-19.3889,-54.5507,5007695
SELVIRIA,MS,-20.3637,-51.4192,5007802
SETE QUEDAS,MS,-23.9705,-55.0398,5007703
SIDROLANDIA,MS,-20.9302,-54.9692,5007901
SONORA,MS,-17.5698,-54.7551,5007935
TACURU,MS,-23.636,-55.0141,5007950
TAQUARUSSU,MS,-22.4898,-53.3519,5007976
TERENOS,MS,-20.4378,-54.8647,5008008
TRES LAGOAS,MS,-20.7849,-51.7007,5008305
VICENTINA,MS,-22.4098,-54.4415,5008404
ACORIZAL,MT,-15.194,-56.3632,5100102
AGUA BOA,MT,-14.051,-52.1601,5100201
ALTA FLORESTA,MT,-9.86674,-56.0867,5100250
ALTO ARAGUAIA,MT,-17.3153,-53.2181,5100300
ALTO BOA VISTA,MT,-11.6732,-51.3883,5100359
ALTO GARCAS,MT,-16.9462,-53.5272,5100409
ALTO PARAGUAI,MT,-14.5137,-56.4776,5100508
ALTO TAQUARI,MT,-17.8241,-53.2792,5100607
APIACAS,MT,-9.53981,-57.4587,5100805
ARAGUAIANA,MT,-15.7291,-51.8341,5101001
ARAGUAINHA,MT,-16.857,-53.0318,5101209
ARAPUTANGA,MT,-15.4641,-58.3425,5101258
ARENAPOLIS,MT,-14.4472,-56.8437,5101308
ARIPUANA,MT,-10.1723,-59.4568,5101407
BARAO DE MELGACO,MT,-16.2067,-55.9623,5101605
BARRA DO BUGRES,MT,-15.0702,-57.1878,5101704
BARRA DO GARCAS,MT,-15.8804,-52.264,5101803
BOM JESUS DO ARAGUAIA,MT,-12.1706,-51.5032,5101852
BRASNORTE,MT,-12.1474,-57.9833,5101902
CACERES,MT,-16.0764,-57.6818,5102504
CAMPINAPOLIS,MT,-14.5162,-52.893,5102603
CAMPO NOVO DO PARECIS,MT,-13.6587,-57.8907,5102637
CAMPO VERDE,MT,-15.545,-55.1626,5102678
CAMPOS DE JULIO,MT,-13.7242,-59.2858,5102686
CANABRAVA DO NORTE,MT,-11.0556,-51.8209,5102694
CANARANA,MT,-13.5515,-52.2705,5102702
CARLINDA,MT,-9.94912,-55.8417,5102793
CASTANHEIRA,MT,-11.1251,-58.6081,5102850
CHAPADA DOS GUIMARAES,MT,-15.4643,-55.7499,5103007
CLAUDIA,MT,-11.5075,-54.8835,5103056
COCALINHO,MT,-14.3903,-51.0001,5103106
COLIDER,MT,-10.8135,-55.461,5103205
COLNIZA,MT,-9.46121,-59.2252,5103254
COMODORO,MT,-13.6614,-59.7848,5103304
CONFRESA,MT,-10.6437,-51.5699,5103353
CONQUISTA D OESTE,MT,-14.5381,-59.5444,5103361
COTRIGUACU,MT,-9.85656,-58.4192,5103379
CUIABA,MT,-15.601,-56.0974,5103403
CURVELANDIA,MT,-15.6084,-57.9133,5103437
DENISE,MT,-14.7324,-57.0583,5103452
DIAMANTINO,MT,-14.4037,-56.4366,5103502
DOM AQUINO,MT,-15.8099,-54.9223,5103601
FELIZ NATAL,MT,-12.385,-54.9227,5103700
FIGUEIROPOLIS D OESTE,MT,-15.4439,-58.7391,5103809
GAUCHA DO NORTE,MT,-13.2443,-53.0809,5103858
GENERAL CARNEIRO,MT,-15.7094,-52.7574,5103908
GLORIA D OESTE,MT,-15.768,-58.3108,5103957
GUARANTA DO NORTE,MT,-9.96218,-54.9121,5104104
GUIRATINGA,MT,-16.346,-53.7575,5104203
INDIAVAI,MT,-15.4921,-58.5802,5104500
IPIRANGA DO NORTE,MT,-12.2408,-56.1531,5104526
ITANHANGA,MT,-12.2259,-56.6463,5104542
ITAUBA,MT,-11.0614,-55.2766,5104559
ITIQUIRA,MT,-17.2147,-54.1422,5104609
JACIARA,MT,-15.9548,-54.9733,5104807
JANGADA,MT,-15.235,-56.4917,5104906
JAURU,MT,-15.3342,-58.8723,5105002
JUARA,MT,-11.2639,-57.5244,5105101
JUINA,MT,-11.3728,-58.7483,5105150
JURUENA,MT,-10.3178,-58.3592,5105176
JUSCIMEIRA,MT,-16.0633,-54.8859,5105200
LAMBARI D OESTE,MT,-15.3188,-58.0046,5105234
LUCAS DO RIO VERDE,MT,-13.0588,-55.9042,5105259
LUCIARA,MT,-11.2219,-50.6676,5105309
MARCELANDIA,MT,-11.0463,-54.4377,5105580
MATUPA,MT,-10.1821,-54.9467,5105606
MIRASSOL D OESTE,MT,-15.6759,-58.0951,5105622
NOBRES,MT,-14.7192,-56.3284,5105903
NORTELANDIA,MT,-14.454,-56.7945,5106000
NOSSA SENHORA DO LIVRAMENTO,MT,-15.772,-56.3432,5106109
NOVA BANDEIRANTES,MT,-9.84977,-57.8139,5106158
NOVA BRASILANDIA,MT,-14.9612,-54.9685,5106208
NOVA CANAA DO NORTE,MT,-10.558,-55.953,5106216
NOVA GUARITA,MT,-10.312,-55.4061,5108808
NOVA LACERDA,MT,-14.4727,-59.6001,5106182
NOVA MARILANDIA,MT,-14.3568,-56.9696,5108857
NOVA MARINGA,MT,-13.0136,-57.0908,5108907
NOVA MONTE VERDE,MT,-9.99998,-57.5261,5108956
NOVA MUTUM,MT,-13.8374,-56.0743,5106224
NOVA NAZARE,MT,-13.9486,-51.8002,5106174
NOVA OLIMPIA,MT,-14.7889,-57.2886,5106232
NOVA SANTA HELENA,MT,-10.8651,-55.1872,5106190
NOVA UBIRATA,MT,-12.9834,-55.2556,5106240
NOVA XAVANTINA,MT,-14.6771,-52.3502,5106257
NOVO HORIZONTE DO NORTE,MT,-11.4089,-57.3488,5106273
NOVO MUNDO,MT,-9.95616,-55.2029,5106265
NOVO SANTO ANTONIO,MT,-12.2875,-50.9686,5106315
NOVO SAO JOAQUIM,MT,-14.9054,-53.0194,5106281
PARANAITA,MT,-9.65835,-56.4786,5106299
PARANATINGA,MT,-14.4265,-54.0524,5106307
PEDRA PRETA,MT,-16.6245,-54.4722,5106372
PEIXOTO DE AZEVEDO,MT,-10.2262,-54.9794,5106422
PLANALTO DA SERRA,MT,-14.6518,-54.7819,5106455
POCONE,MT,-16.266,-56.6261,5106505
PONTAL DO ARAGUAIA,MT,-15.9274,-52.3273,5106653
PONTE BRANCA,MT,-16.7584,-52.8369,5106703
PONTES E LACERDA,MT,-15.2219,-59.3435,5106752
PORTO ALEGRE DO NORTE,MT,-10.8761,-51.6357,5106778
PORTO DOS GAUCHOS,MT,-11.533,-57.4132,5106802
PORTO ESPERIDIAO,MT,-15.857,-58.4619,5106828
PORTO ESTRELA,MT,-15.3235,-57.2204,5106851
POXOREO,MT,-15.8299,-54.4208,5107008
PRIMAVERA DO LESTE,MT,-15.544,-54.2811,5107040
QUERENCIA,MT,-12.6093,-52.1821,5107065
RESERVA DO CABACAL,MT,-15.0743,-58.4585,5107156
RIBEIRAO CASCALHEIRA,MT,-12.9367,-51.8244,5107180
RIBEIRAOZINHO,MT,-16.4856,-52.6924,5107198
RIO BRANCO,MT,-15.2483,-58.1259,5107206
RONDOLANDIA,MT,-10.8376,-61.4697,5107578
RONDONOPOLIS,MT,-16.4673,-54.6372,5107602
ROSARIO OESTE,MT,-14.8259,-56.4236,5107701
SALTO DO CEU,MT,-15.1303,-58.1317,5107750
SANTA CARMEM,MT,-11.9125,-55.2263,5107248
SANTA CRUZ DO XINGU,MT,-10.1532,-52.3953,5107743
SANTA RITA DO TRIVELATO,MT,-13.8146,-55.2706,5107768
SANTA TEREZINHA,MT,-10.4704,-50.514,5107776
SANTO AFONSO,MT,-14.4945,-57.0091,5107263
SANTO ANTONIO DO LESTE,MT,-14.805,-53.6075,5107792
SANTO ANTONIO DO LEVERGER,MT,-15.8632,-56.0788,5107800
SAO FELIX DO ARAGUAIA,MT,-11.615,-50.6706,5107859
SAO JOSE DO POVO,MT,-16.4549,-54.2487,5107297
SAO JOSE DO RIO CLARO,MT,-13.4398,-56.7218,5107305
SAO JOSE DO XINGU,MT,-10.7982,-52.7486,5107354
SAO JOSE DOS QUATRO MARCOS,MT,-15.6276,-58.1772,5107107
SAO PEDRO DA CIPA,MT,-16.0109,-54.9176,5107404
SAPEZAL,MT,-12.9892,-58.7645,5107875
SERRA NOVA DOURADA,MT,-12.0896,-51.4025,5107883
SINOP,MT,-11.8604,-55.5091,5107909
SORRISO,MT,-12.5425,-55.7211,5107925
TABAPORA,MT,-11.3007,-56.8312,5107941
TANGARA DA SERRA,MT,-14.6229,-57.4933,5107958
TAPURAH,MT,-12.695,-56.5178,5108006
TERRA NOVA DO NORTE,MT,-10.517,-55.231,5108055
TESOURO,MT,-16.0809,-53.559,5108105
TORIXOREU,MT,-16.2006,-52.5571,5108204
UNIAO DO SUL,MT,-11.5308,-54.3616,5108303
VALE DE SAO DOMINGOS,MT,-15.286,-59.0683,5108352
VARZEA GRANDE,MT,-15.6458,-56.1322,5108402
VERA,MT,-12.3017,-55.3045,5108501
VILA BELA DA SANTISSIMA TRINDADE,MT,-15.0068,-59.9504,5105507
VILA RICA,MT,-10.0137,-51.1186,5108600
ABAETETUBA,PA,-1.72183,-48.8788,1500107
