Cidade,UF,lat,lon
SAO LUIS,MA,-2.5307,-44.3068
TERESINA,PI,-5.0919,-42.8034
RECIFE,PE,-8.0476,-34.8770
PAULISTA,PE,-7.9408,-34.8730
JABOATAO DOS GUARARAPES,PE,-8.1120,-35.0140
PALMAS,TO,-10.1840,-48.3336
BARAO DE GRAJAU,MA,-6.7440,-43.0210
TIMON,MA,-5.0940,-42.8369
CAXIAS,MA,-4.8580,-43.3560
PINHEIRO,MA,-2.5220,-45.0820
LIMA CAMPOS,MA,-4.5180,-44.4640
PARNARAMA,MA,-5.6820,-43.1010
MIRADOR,MA,-6.3720,-44.3680
